name,station_id,name_short,lat,lon,id_region
ABANO TERME,S05700,Abano Terme,45.355199,11.811533,5
ABBADIA LARIANA,S01416,Abbadia Lariana,45.895864,9.335175,3
ABBASANTA,S12873,Abbasanta,40.128801,8.817733,20
ABBIATEGRASSO,S01062,Abbiategrasso,45.400631,8.921305,3
ACATE,S12409,Acate,36.996592,14.42545,19
ACCIANO,S07423,Acciano,42.175994,13.711345,13
ACERRA,S09215,Acerra,40.939066,14.372243,15
ACIREALE,S12328,Acireale,37.600514,15.163697,19
ACQUA ACETOSA,S08715,Acqua Acetosa,41.794294,12.616449,12
ACQUAFREDDA,S11722,Acquafredda,40.035527,15.671846,17
ACQUAMELA,S09798,Acquamela,40.733563,14.772626,15
ACQUANEGRA CREMONESE,S01913,Acquanegra Crem.,45.172102,9.888456,3
ACQUAPPESA,S11736,Acquappesa,39.48648,15.955992,18
ACQUAVIVA,S12209,Acquaviva,37.570258,13.674927,19
ACQUAVIVA DELLE FONTI,S11504,Acquaviva,40.892806,16.839826,16
ACQUEDOLCI-S.FRATELLO,S12026,Acquedolci S.F.,38.058459,14.587597,19
ACQUI TERME,S00867,Acqui Terme,44.67407,8.474482,1
ACRI BISIGNANO LUZZI,S11907,Acri Bisignano,39.441389,16.245177,18
ADRIA,S05420,Adria,45.06058,12.054228,5
AFRICO NUOVO,S11872,Africo Nuovo,38.053759,16.144283,18
AGLIANO CASTELNUOVO CALCEA,S00804,Agliano C.C.,44.786108,8.267723,1
AGOGNATE,S00075,AGOGNATE,45.472833,8.588981,1
AGRIGENTO BASSA,S12213,Agrigento Bassa,37.319148,13.588094,19
AGRIGENTO CENTRALE,S12216,Agrigento Centr.,37.309051,13.584412,19
AGROPOLI CASTELLABATE,S11705,Agropoli,40.351521,15.002053,15
AIELLI,S08550,Aielli,42.062085,13.581183,13
AIRASCA,S00514,Airasca,44.928093,7.483536,1
AIROLE,S04481,Airole,43.870494,7.552757,7
AIRUNO,S01515,Airuno,45.754086,9.422066,3
ALA,S02049,Ala,45.760087,10.996775,4
ALANNO,S07708,Alanno,42.287185,14.019595,13
ALANO FENER VALDOBBIADENE,S02566,Alano Fener Val.,45.90229,11.944546,5
ALASSIO,S04515,Alassio,44.007889,8.17112,7
ALBA,S00825,Alba,44.697713,8.030629,1
ALBA ADRIATICA NERETO CONTR.,S07800,Alba Adriatica,42.83438,13.91733,13
ALBACINA,S07207,Albacina,43.345686,12.986501,11
ALBAIRATE VERMEZZO,S01059,Albairate-V.,45.435846,9.132887,3
ALBANO DI LUCANIA,S11453,Albano Lucania,40.574707,16.021247,17
ALBANO LAZIALE,S08704,Albano Laziale,41.72632,12.658056,12
ALBANO S.ALESSANDRO,S01534,Albano S.Aless.,45.682744,9.768027,3
ALBANOVA,S09004,Albanova,40.996117,14.128596,15
ALBAREDO,S02538,Albaredo,45.670265,12.015104,5
ALBATE CAMERLATA,S01310,Albate-Camerlata,45.777371,9.073461,3
ALBATE-TRECALLO,S01450,Albate-Trecallo,45.777391,9.095752,3
ALBENGA,S04516,Albenga,44.04722,8.221663,7
ALBERESE,S08001,Alberese,42.634158,11.1352,9
ALBERGO,S06067,Albergo,45.485337,11.423534,5
ALBINIA,S08003,Albinia,42.502165,11.21134,9
ALBISOLA,S04529,Albisola,44.33469,8.512092,7
ALBIZZATE SOLBIATE ARNO,S01209,Albizzate S.A.,45.724117,8.80621,3
ALBONESE,S00033,Albonese,45.297785,8.714601,3
ALBUZZANO,S01863,Albuzzano,45.172504,9.261624,3
ALCAMO DIRAMAZIONE,S12150,Alcamo diramaz.,37.978894,12.915916,19
ALCANTARA,S12320,Alcantara,37.82145,15.251158,19
ALESSANDRIA,S00470,Alessandria,44.909091,8.606498,1
ALFEDENA-SCONTRONE,S08908,Alfedena-Scontr,41.738222,14.044662,13
ALFONSINE,S05808,Alfonsine,44.512364,12.039155,8
ALICE BELCOLLE,S00809,Alice Belcolle,44.722636,8.440076,1
ALIFE,S09020,Alife,41.323686,14.34057,15
ALI` TERME,S12310,Ali' Terme,38.013952,15.435184,19
ALLERONA-CASTEL VISCARDO,S08202,Allerona,42.78502,12.035236,10
ALPIGNANO,S00216,Alpignano,45.091077,7.523745,1
ALTAMURA,S11307,Altamura,40.837666,16.551739,16
ALTARE,S04810,Altare,44.336169,8.332753,7
ALTAVILLA IRPINA,S09511,Altavilla Irpina,41.015265,14.782833,15
ALTAVILLA M.,S12011,Altavilla,38.048392,13.554421,19
ALTAVILLA TAVERNELLE,S02444,Altavilla Tav.,45.511805,11.454702,5
ALTOPASCIO,S06407,Altopascio,43.817418,10.672754,9
ALVIANO,S08206,Alviano,42.591917,12.259583,10
ALVIGNNO,S09023,Alvignano,41.246773,14.337929,15
AMANTEA,S11744,Amantea,39.134353,16.068448,18
AMBIVERE MAPELLO,S01527,Ambivere Mapello,45.722163,9.550444,3
AMENDOLA,S11051,Amendola,41.518025,15.732569,16
AMENDOLARA ORIOLO,S11807,Amendolara Or.,39.933731,16.60308,18
AMOROSI MELIZZANO,S09306,Amorosi Mel.,41.173509,14.470759,15
ANAGNI-FIUGGI,S08658,Anagni-Fiuggi,41.71037,13.09597,12
ANCONA,S07113,Ancona,43.607734,13.497665,11
ANCONA MARITTIMA,S07116,Ancona Mar.,43.619445,13.50911,11
ANCONA STADIO,S07114,Ancona S.,43.566391,13.520863,11
ANCONA TORRETTE,S07015,Ancona Torrette,43.609936,13.455777,11
ANCONETTA,S02141,Anconetta,45.565249,11.567865,5
ANDORA,S04525,Andora,43.960509,8.139255,7
ANFITEATRO,S09031,Anfiteatro,41.10072,14.284954,15
ANGRI,S09812,Angri,40.746404,14.575366,15
ANGUILLARA,S08318,Anguillara,42.068133,12.304978,12
ANNA',S11870,Anna',37.999232,15.894898,18
ANNONE VENETO,S02769,Annone Veneto,45.774904,12.680334,5
ANTIGNANO,S06727,Antignano,43.492482,10.328827,9
ANTRODOCO BORGO VELINO,S07408,Antrodoco B.V.,42.415393,13.076193,12
ANTRODOCO CENTRO,S07435,Antrodoco Centro,42.409844,13.07096,12
ANVERSA-VILLALAGO-SCANNO,S08537,Anversa V. S.,42.017261,13.835618,13
ANZANO DEL PARCO,S01453,Anzano del Parco,45.764965,9.202676,3
ANZIO,S08709,Anzio,41.4532,12.633205,12
ANZIO COLONIA,S08713,Anzio Colonia,41.459893,12.617442,12
ANZOLA,S05386,Anzola,44.550951,11.196604,8
AOSTA,S00137,Aosta,45.73407,7.322424,2
AOSTA ISTITUTO,S00143,Aosta Istituto,45.732938,7.303076,2
AOSTA VIALE EUROPA,S00146,Aosta V.Europa,45.733294,7.297371,2
APICE S.ARCANGELO BONITO,S09314,Apice S.A.B.,41.140927,14.918733,15
APPIANO,S08328,Appiano,41.909342,12.43838,12
APRICENA,S11024,Apricena,41.77664,15.387809,16
APRILIA,S08705,Aprilia,41.592386,12.639126,12
AQUILONIA,S09623,Aquilonia,40.940252,15.541249,15
ARAGONA CALDARE,S12370,Aragona Caldare,37.381097,13.636837,19
ARBIA,S06811,Arbia,43.294393,11.406225,9
ARBOSTELLA,S09838,Arbostella,40.677263,15.623814,17
ARCE,S08861,Arce,41.583695,13.571848,12
ARCHI,S07992,Archi,38.160056,15.732652,18
ARCISATE,S01203,Arcisate,45.858579,8.86241,3
ARCOLA,S06006,Arcola,44.118651,9.914649,7
ARCORE,S01510,Arcore,45.623493,9.322798,3
ARDARA,S12817,Ardara,40.632139,8.818996,20
ARDENNO MASINO,S01427,Ardenno Masino,46.16198,9.651374,3
ARDORE,S11853,Ardore,38.175698,16.207311,18
ARECHI,S09839,Arechi,40.648268,14.825725,15
ARENA PO,S01947,Arena Po,45.082065,9.360394,3
ARENZANO,S04533,Arenzano,44.403089,8.678322,7
AREZZO,S06915,Arezzo,43.461725,11.874189,9
AREZZO C.C.,S06086,Arezzo C. C.,43.461176,11.875623,9
AREZZO PESCAIOLA,S06063,AREZZO PESCAIOLA,43.547751,12.210747,10
ARGENTA,S05804,Argenta,44.616867,11.841267,8
ARIANO IRPINO,S09316,Ariano Irpino,41.181883,15.117508,15
ARONA,S01020,Arona,45.755392,8.559075,1
AROSIO,S01092,Arosio,45.71843,9.210397,3
ARPAIA-AIROLA-S. AGATA DEI GOTI,S09017,Arpaia-Airola,41.045132,14.59623,15
ARPINO,S08859,Arpino,41.648296,13.59959,12
ARQUATA SCRIVIA,S04207,Arquata Scrivia,44.692533,8.885342,1
ARQUA`,S05707,Arqua',45.006465,11.748518,5
ARSOLI,S08516,Arsoli,42.045852,13.013064,12
ARTEGNA,S03021,Artegna,46.23115,13.162328,6
ARVIER,S00134,Arvier,45.704259,7.166681,2
ASCEA,S11711,Ascea,40.140955,15.172626,15
ASCIANO,S06813,Asciano,43.235245,11.579237,9
ASCIANO MONTE OLIVETO MAGGIORE,S06825,Asciano M.O.M.,43.231706,11.563621,9
ASCOLI PICENO,S07550,Ascoli P.,42.855474,13.587939,11
ASCOLI SATRIANO,S11203,Ascoli Satriano,41.219859,15.547828,16
ASOLA,S01847,Asola,45.220454,10.402313,3
ASSEMINI,S12889,Assemini,39.287603,8.997936,20
ASSEMINI CARMINE,S12809,ASSEMINI C.,39.298856,9.079738,20
ASSEMINI S. LUCIA,S12808,ASSEMINI S. L.,39.291288,8.990041,20
ASSISI,S07008,Assisi,43.058921,12.585304,10
ASSO,S01101,ASSO,45.855228,9.268513,3
ASTI,S00462,Asti,44.89479,8.208112,1
ATELETA,S07998,Ateleta,41.856254,14.194677,13
ATENA,S09904,Atena,40.456676,15.536094,15
ATTIGLIANO,S08207,Attigliano,42.518054,12.294761,10
AUGUSTA,S12345,Augusta,37.24334,15.218628,19
AULETTA,S09902,Auletta,40.534934,15.426706,15
AULLA,S06168,Aulla,44.209662,9.970632,9
AULLA LUNIGIANA,S06013,Aulla Lunigiana,44.210555,9.970015,9
AURISINA,S03550,Aurisina,45.753943,13.687706,6
AVELLINO,S09514,Avellino,40.921612,14.820586,15
AVERSA,S09006,Aversa,40.973323,14.218578,15
AVEZZANO,S08526,Avezzano,42.039495,13.426446,13
AVIANO,S03087,Aviano,46.064362,12.590686,6
AVIGLIANA,S00214,Avigliana,45.085276,7.401096,1
AVIGLIANO LUCANIA,S11214,Avigliano Luc.,40.714667,15.785619,17
AVIO,S02050,Avio,45.733892,10.955842,4
AVISE,S00133,Avise,45.706296,7.131285,2
AVOLA,S12426,Avola,36.907434,15.125733,19
BAGGIOVARA OSPEDALE,S05186,Bagg.O,44.786831,12.224476,8
BAGNOLO IN PIANO,S05946,BAGNOLO,44.779669,10.798008,8
BARCO,S05929,BARCO,46.249626,12.332539,6
BAZZANO,S05975,BAZZANO,42.429992,13.696259,13
BIBBIANO,S05927,Bibbiano,44.666234,10.47676,8
BIBBIANO VIA MONTI,S05926,Bibbiano M,44.664185,10.469641,8
BOLOGNA RIMESSE,S05989,Bo Rim.,44.494487,11.375277,8
BOLOGNA VIA LARGA,S05991,BO Lar.,44.51229,11.539303,8
BORETTO,S05963,Boretto,44.903501,10.553518,8
BUDRIO,S05017,Budrio,44.533191,11.528253,8
BUDRIO CENTRO,S05996,BudrioC.,44.536493,11.539313,8
Bazzano (AQ),S07436,Bazzano (AQ),42.334885,13.443428,13
BARI CENTRALE,S11119,Bari C.le,41.11774,16.869601,16
BARI TORRE QUETTA,S11004,BARI T. QUETTA,41.111719,16.916097,16
BOLOGNA C.LE,S05043,Bologna Centrale,44.50626,11.342267,8
BA POLICLINICO,S11499,Ba Policlinico,41.158853,16.98976,16
BACIANO,S06081,Baciano,43.59924,11.879788,9
BADEN,S03118,Baden,48.00417,16.242093,
BADIA POLESINE,S02370,Badia Polesine,45.094439,11.484722,5
BADOLATO,S11841,Badolato,38.572268,16.567646,18
BAGHERIA,S12008,Bagheria,38.089905,13.507215,19
BAGNACAVALLO,S05902,Bagnacavallo,44.412138,11.969398,8
BAGNARA,S11770,Bagnara,38.282695,15.800327,18
BAGNARIA ARSA,S03123,Bagnaria Arsa,45.885513,13.282026,6
BAGNASCO,S00921,Bagnasco,44.303264,8.046132,1
BAGNI DI LUCCA,S06308,Bagni di Lucca,44.003447,10.551631,9
BAGNI DI TIVOLI,S08504,Bagni di Tivoli,41.949593,12.722208,12
BAGNOLI AGNANO TERME,S09102,Bagnoli Agnano T,40.819444,14.166694,15
BAGNOLI IRPINO,S09613,Bagnoli Irpino,40.83917,15.06324,15
BAGNOLO MELLA,S01901,Bagnolo Mella,45.428532,10.183617,3
BAIANO DI SPOLETO,S07224,Baiano di S.,42.726238,12.663615,10
BALANGERO,S00094,BALANGERO,45.265746,7.520099,1
BALDICHIERI,S00460,Baldichieri,44.899204,8.091198,1
BALESTRATE,S12122,Balestrate,38.053364,13.007374,
BALSORANO,S08856,Balsorano,41.809427,13.556546,13
BALVANO R.,S09830,Balvano R.,40.649993,15.495304,15
BALZOLA,S00178,Balzola,45.173985,8.402174,1
BANDITO,S00732,Bandito,44.722075,7.819452,1
BARAGIANO,S09832,Baragiano,40.695213,15.569206,17
BARANELLO,S09458,Baranello,41.5176,14.596314,14
BARBERINO VAL D`ELSA,S06806,Barberino V.E,43.539798,11.329933,9
BARBIANELLO,S01932,Barbianello,45.07263,9.204165,3
BARBIANO,S05905,Barbiano,44.387263,11.878086,8
BARBUSI,S12971,Barbusi,39.203024,8.501702,20
BARCELLONA,S12041,Barcellona,38.14918,15.212499,19
BARDONECCHIA,S00202,Bardonecchia,45.076447,6.709959,1
BARGA GALLICANO,S06303,Barga-Gallicano,44.068114,10.451938,9
BARI PALESE MACCHIE,S11118,Bari Palese M.,41.151583,16.766902,16
BARI PARCO NORD,S11148,Bari Parco Nord,41.123916,16.837018,16
BARI PARCO NORD FASCIO TARANTO,S11149,Bari PN F.Ta,41.117261,16.872862,16
BARI PARCO SUD,S11125,Bari Parco Sud,41.111822,16.914736,16
BARI S. SPIRITO,S11116,Bari S.Spirito,41.159653,16.746324,16
BARI S.ANDREA,S11513,Bari S.Andrea,41.105467,16.830255,16
BARI S.GIORGIO,S11150,Bari S.Giorgio,41.093779,16.950084,16
BARI TORRE A MARE,S11126,BA Torre a Mare,41.082637,16.995772,16
BARI VILLAGGIO DEL LAVORATORE,S11003,Bari Vill. L.,41.106099,16.823613,16
BARI ZONA INDUSTRIALE,S11120,BA Zona Ind.le,41.129089,16.83127,16
BARICETTA,S05419,Baricetta,45.060889,11.995348,5
BARILE,S11208,Barile,40.943044,15.670959,17
BARLASSINA,S01926,Barlassina,45.655305,9.131535,3
BARLETTA,S11108,Barletta,41.315227,16.278867,16
BARONISSI,S09520,Baronissi,40.743779,14.77224,15
BARRUCCANA,S01929,Barruccana,45.638063,9.162839,3
BASCHI-MONTECCHIO,S08204,Baschi Montecc.,42.68685,12.203496,10
BASILIANO,S02832,Basiliano,46.012737,13.109233,6
BASSANO DEL GRAPPA,S02520,Bassano del Gr.,45.766697,11.741525,5
BASSANO IN TEVERINA,S08208,Bassano Teverina,42.483551,12.333556,12
BASSANO ROMANO,S08312,Bassano Romano,42.212444,12.152302,12
BASTIA,S07007,Bastia,43.07133,12.547735,10
BASTIA MONDOVI`,S00908,Bastia Mondovi',44.439398,7.891671,1
BATTAGLIA TERME,S05702,Battaglia Terme,45.291475,11.77838,5
BATTIPAGLIA,S09823,Battipaglia,40.605789,14.98324,15
BAULADU MILIS,S12875,Bauladu Milis,40.020722,8.687123,20
BAVENO,S01015,Baveno,45.909105,8.502121,1
BAZZANA,S00807,Bazzana,44.777094,8.401557,1
BEAULARD,S00203,Beaulard,45.046495,6.759713,1
BEFFI,S07422,Beffi,42.197341,13.660759,13
BEINETTE,S00901,Beinette,44.36782,7.644884,1
BELGIOIOSO,S01864,Belgioioso,45.16456,9.316875,3
BELGIRATE,S01017,Belgirate,45.843337,8.570821,1
BELLA MURO,S09831,Bella Muro,40.700914,15.542936,17
BELLANO TARTAVELLE TERME,S01409,Bellano T.Terme,46.039448,9.302776,3
BELLANTE RIPATTONE,S07902,Bellante Ripat.,42.705775,13.837978,13
BELLARIA,S05817,Bellaria,44.150249,12.461168,8
BELLAVISTA,S11512,Bellavista,40.517077,17.176892,16
BELLINZAGO,S00985,Bellinzago,45.566681,8.627652,1
BELLINZONA,S00300,Bellinzona,46.586913,10.200154,3
BELLISIO SOLFARE,S07061,Bellisio Solfare,43.520379,12.823977,11
BELLUNO,S02559,Belluno,46.141594,12.209703,5
BELMONTE CALABRO,S11743,Belmonte,39.164427,16.064515,18
BELVEDERE MARITTIMO,S11732,Belvedere M.,39.616549,15.853039,18
BENEVENTO,S09311,Benevento,41.141901,14.769998,15
BENEVENTO ACQUAFREDDA,S09472,BN Acquafredda,41.144419,14.785044,15
BENEVENTO APPIA,S09011,BENEVENTO APPIA,41.137303,14.783273,15
BENEVENTO ARCO TRAIANO,S09530,BN Arco Traiano,41.136834,14.777662,15
BENEVENTO PORTA RUFINA,S09509,BN Porta Rufina,41.123564,14.784315,15
BENEVENTO RIONE LIBERTA',S09012,BN Rion. Liberté‘?,41.12519,14.766827,15
BERCETO,S06158,Berceto,44.555912,9.931759,8
BERCHIDDA,S12859,Berchidda,40.772052,9.181312,20
BERGAMASCO,S00838,Bergamasco,44.819891,8.461447,1
BERGAMO,S01529,Bergamo,45.690271,9.675082,3
BERNALDA,S11460,Bernalda,40.397616,16.682281,17
BESANA,S01488,Besana,45.702824,9.28288,3
BESNATE,S01145,Besnate,45.695409,8.761072,3
BESOZZO,S01141,Besozzo,45.842188,8.662997,3
BEURA CARDEZZA,S01007,Beura Cardezza,46.068341,8.289627,1
BEVERA,S04482,Bevera,43.825303,7.579157,7
BEVILACQUA,S02391,Bevilacqua,45.230145,11.398643,5
BIAGIONI LAGACCI,S05119,Biagioni Lagacci,44.086359,10.948257,8
BIANCO,S11855,Bianco,38.089072,16.153348,18
BIANZE`,S00238,Bianze',45.309488,8.115523,1
BIANZONE,S01438,Bianzone,46.179383,10.112507,3
BIASSONO-LESMO PARCO,S01483,Biassono-Lesmo P,45.632209,9.298408,3
BIBBIENA,S06076,Bibbiena,43.718107,12.002563,9
BIBBIENA CORSALONE,S06077,Bibbiena Corsal.,43.6862,11.826231,9
BIBIANA,S00522,Bibiana,44.809941,7.285727,1
BICOCCA,S12338,Bicocca,37.460617,15.044594,19
BIELLA CHIAVAZZA,S00970,Biella Chiavazza,45.568084,8.066787,1
BIELLA S.PAOLO,S00070,Biella S.Paolo,45.557334,8.067541,1
BIFORCO,S06611,Biforco,44.068431,11.602243,9
BINARIO S.MARCO VECCHIO,S06950,Binario.S.M.V.,43.790336,11.267403,9
BISCEGLIE,S11113,Bisceglie,41.235445,16.499484,16
BISTAGNO,S00870,Bistagno,44.659256,8.372057,1
BISUSCHIO VIGGIU,S01202,Bisuschio Viggiu,45.870658,8.887544,3
BITETTO PALO DEL COLLE,S11501,Bitetto,41.041481,16.74053,16
BIVIO D`AURISINA,S03313,BIVIO D'AURISINA,45.754253,13.655777,6
BOCCIA AL MAURO,S09763,Boccia al Mauro,40.732794,14.471878,15
BOGLIASCO,S04709,Bogliasco,44.379207,9.066042,7
BOIANO,S09453,Boiano,41.487883,14.474551,14
BOLGHERI,S06028,Bolgheri,43.244664,10.550548,9
BOLLATE CENTRO,S01071,Bollate Centro,45.545671,9.138675,3
BOLLATE NORD,S01072,Bollate Nord,45.552729,9.112831,3
BOLOGNA BORGO PANIGALE,S05100,Borgo Panigale,44.515024,11.284728,8
BOLOGNA C.LE/AV,S05046,Bologna C.le/AV,44.506813,11.342622,8
BOLOGNA CORTICELLA,S05725,Bo.Corticella,44.551985,11.35401,8
BOLOGNA FIERE,S05020,Bologna Fiere,44.512742,11.368809,8
BOLOGNA MAZZINI,S05140,BO. Mazzini,44.482284,11.376271,8
BOLOGNA RAVONE,S05042,BO Ravone,44.510244,11.320029,8
BOLOGNA S.RUFFILLO,S05130,BO S.Ruffillo,44.462657,11.372967,8
BOLOGNA SAN VITALE,S05081,Bologna S.Vitale,44.535567,11.631984,8
BOLZANO ,S02026,Bolzano,46.496346,11.358556,4
BOLZANO NOVARESE,S00014,Bolzano Novarese,45.759357,8.440754,1
BOLZANO SUD ,S02226,Bolzano Sud,46.472617,11.33334,4
BOMBA TORRICELLA,S07993,Bomba Torricella,40.356518,17.499325,16
BONASSOLA,S04730,Bonassola,44.184867,9.582673,7
BONDENO,S05165,Bondeno,45.017441,11.914048,5
BONEFRO S.CROCE,S09464,Bonefro S.Croce,41.710522,14.860799,14
BONFERRARO,S02383,Bonferraro,45.185651,11.009247,5
BONORVA,S12867,Bonorva,40.417763,8.760707,20
BORDIGHERA,S04503,Bordighera,43.778313,7.663504,7
BORGARO,S00086,Borgaro,45.153344,7.648902,1
BORGHETTO,S02051,Borghetto,45.696721,10.927083,4
BORGHETTO PARMENSE,S06100,Borghetto Parm.,44.837198,10.1177,8
BORGHETTO SANTO SPIRITO,S04518,Borghetto S.S.,44.109006,8.242346,7
BORGIO VEREZZI,S04521,Borgio Verezzi,44.157722,8.30908,7
BORGO,S09526,Borgo,40.845976,14.784092,15
BORGO A BUGGIANO,S06410,Borgo a Buggiano,43.880724,10.730079,9
BORGO A MOZZANO,S06309,Borgo a Mozzano,43.977207,10.541285,9
BORGO FORNARI PER VOLTAGGIO,S04214,Borgo Fornari,44.588379,8.938295,7
BORGO LAVEZZARO,S00032,Borgo Lavezzaro,45.318783,8.703242,1
BORGO REVEL,S00171,Borgo Revel,45.189827,8.02021,1
BORGO S. LORENZO,S06604,Borgo S.L.,43.959822,11.380422,9
BORGO S.L.RIMORELLI,S06704,Borgo S.L.Rimor.,43.953279,11.400076,9
BORGO S.MARTINO,S00315,Borgo S.Martino,45.087083,8.520661,1
BORGO SAN DALMAZZO,S00613,Borgo S.Dalmazzo,44.326249,7.486111,1
BORGO TICINO,S00981,Borgo Ticino,45.691943,8.602483,1
BORGO VAL DI TARO,S06161,Borgo Val Taro,44.486522,9.781489,8
BORGO VALSUGANA CENTRO,S02313,Borgo Valsugana,46.051182,11.453967,4
BORGO VALSUGANA EST,S02314,Borgo Valsug. E.,46.05224,11.462119,4
BORGO VERCELLI,S00246,Borgo Vercelli,45.359252,8.461474,1
BORGOCHIESANUOVA,S02021,Borgochiesan,45.141969,10.767284,3
BORGOFORTE,S02338,Borgoforte,45.050328,10.752388,3
BORGOFRANCO,S00152,Borgofranco,45.514775,7.854612,1
BORGOLOMBARDO,S01830,Borgolombardo,45.403856,9.27111,3
BORGOMANERO,S00016,Borgomanero,45.701054,8.468093,1
BORGONE,S00210,Borgone,45.123191,7.236037,1
BORGONUOVO,S05152,Borgonuovo,44.443324,11.275097,8
BORGORATTO,S00860,Borgoratto,44.835999,8.538182,1
BORGOSESIA,S00104,Borgosesia,45.716798,8.28239,1
BORORE,S12872,Borore,40.218992,8.809535,20
BOSCHI S.ANNA,S02390,Boschi S.Anna,45.217328,11.362302,5
BOSCO REDOLE,S09452,Bosco Redole,41.459299,14.587884,14
BOSCONERO,S00882,Bosconero,45.267643,7.762383,1
BOSCOREALE,S09754,Boscoreale,40.770786,14.48017,15
BOTRICELLO,S11829,Botricello,38.933943,16.857433,18
BOTTENICCHIO Z.I.,S03057,Bottenicchio Z.I,41.918315,12.28652,12
BOVA MARINA,S11860,Bova Marina,37.930269,15.923897,18
BOVALINO,S11854,Bovalino,38.149087,16.180584,18
BOVINO DELICETO,S09321,Bovino Deliceto,41.27835,15.369255,16
BOVISO MASCIAGO - MOMBELLO,S01085,Boviso M.-Momb.,45.612103,9.141915,3
BOVOLONE,S02363,Bovolone,45.254446,11.123862,5
BOZZOLO,S01920,Bozzolo,45.107246,10.472655,3
BRA,S00821,Bra,44.693556,7.848643,1
BRACCIANO,S08315,Bracciano,42.103667,12.173023,12
BRAGNO,S04803,Bragno,44.371679,8.304473,7
BRANCALEONE,S11857,Brancaleone,37.965475,16.103301,18
BRANDIZZO,S00231,Brandizzo,45.178915,7.841218,1
BREIL SUR ROYA,S00622,Breil Sur Roya,43.890267,7.530915,7
BRENNA-ALZATE,S01452,Brenna-Alzate,45.754044,9.183312,3
BRENNERO,S02001,BRENNERO,47.004117,11.505711,4
BRESCIA,S01717,Brescia,45.532315,10.212828,3
BRESSANA ARGINE,S01930,Bressana Argine,45.072739,9.137038,3
BRESSANA BOTTARONE,S01805,Bressana Bott.,45.086298,9.110602,3
BRESSANONE,S02014,Bressanone,46.710088,11.649677,4
BRIATICO,S11757,Briatico,38.725447,16.025765,18
BRICHERASIO,S00521,Bricherasio,44.824336,7.307513,1
BRINDISI,S11136,Brindisi,40.634339,17.938978,16
BRINDISI DI MONTAGNA,S11451,Brindisi di Mont,40.611991,15.955795,17
BRINDISI MARITTIMA,S11137,Brindisi Maritt.,40.633543,17.94863,16
BRIONA,S00113,Briona,45.538568,8.479541,1
BRISIGHELLA,S06614,Brisighella,44.220565,11.769757,8
BROLO FICARRA,S12031,Brolo Ficarra,38.159204,14.830176,19
BRONI,S01944,Broni,45.066263,9.258751,3
BRONZOLO ,S02030,Bronzolo,46.40505,11.315833,4
BROZOLO,S00424,Brozolo,45.121299,8.05893,1
BRUNICO ,S02107,Brunico,46.794922,11.929989,4
BRUNICO NORD,S02018,Brunico Nord,46.800663,11.936795,4
BRUNO,S00837,Bruno,44.797947,8.439639,1
BRUZOLO,S00209,Bruzolo,45.131032,7.201497,1
BS EST PIAZ. SUD,S01813,Brescia,45.532684,10.213281,3
BUCCINO S.,S09828,Buccino,40.600806,15.374199,15
BUCINE,S06911,Bucine,43.480478,11.617609,9
BUDOIA POLCENIGO,S03088,Budoia Polcenigo,46.031464,12.537637,6
BUGNARA,S08538,Bugnara,42.031166,13.862082,13
BUONCONVENTO,S06874,Buonconvento,43.135503,11.483773,9
BUONFORNELLO,S12016,Buonfornello,37.972052,13.816408,19
BURONZO,S00054,Buronzo,45.47179,8.2667,1
BUSA DI VIGONZA,S02595,Busa di Vigonza,45.430156,11.953288,5
BUSALLA,S04215,Busalla,44.57558,8.943611,7
BUSCA,S00704,Busca,44.520585,7.481589,1
BUSCHE LENTIAI MEL,S02563,Busche Lentiai M,46.040092,11.979251,5
BUSSETO,S01963,Busseto,44.974692,10.038909,8
BUSSI,S07704,Bussi,42.194154,13.849075,13
BUSSOLENO,S00208,Bussoleno,45.139631,7.144819,1
BUSTO ARSIZIO,S01031,Busto Arsizio,45.616164,8.865031,3
BUSTO ARSIZIO N.,S01137,Busto Arsizio N.,45.649735,9.012247,3
BUTTAFAVA,S01482,Buttafava,45.62141,9.301185,3
BUTTAPIETRA,S05301,Buttapietra,45.338787,10.988059,5
BUTTRIO,S03029,Buttrio,46.012664,13.329039,6
Biv. Venezia,S05048,Biv.VE,45.487378,12.274592,5
CASALECCHIO PALASPORT,S05968,Cas.port,44.502648,11.351384,8
CASALGRANDE,S05982,CASALGRANDE,44.566518,10.757817,8
CASINALBO,S05184,Casinal.,44.593876,10.856563,8
CASTENASO,S05995,Casten.,44.503548,11.472576,8
CASTENASO STELLINA,S05994,Cast.St.,44.503915,11.458739,8
CAVRIAGO,S05932,Cavriago,44.697948,10.530727,8
CAVRIAGO S.NICOLO',S05931,Cavr. S.N.,44.699949,10.524062,8
CHIOZZA,S05983,CHIOZZA,44.759294,11.2667,8
CIANO D'ENZA,S05921,CIANO,44.617005,10.48884,8
CIANO VIA TEDALDO DA CANOSSA,S05922,Ciano T.C.,44.604323,10.414644,8
CODEMONDO,S05933,Codemondo,44.728978,10.770181,8
CODISOTTO,S05957,Codisott,44.976652,10.727743,8
CONSANDOLO,S05999,Consan.,44.663917,11.776419,8
CORNIANO,S05925,Corniano,44.652932,10.460803,8
CRESPELLANO,S05973,Crespel.,44.512397,11.130297,8
CABIATE,S01088,Cabiate,45.695036,9.239565,3
CADEO,S05006,Cadeo,44.967283,9.853181,8
CAGLIARI,S12891,Cagliari,39.216078,9.107984,20
CAGLIARI ELMAS,S12890,Cagliari Elmas,39.264193,9.045497,20
CAIAZZO,S09025,Caiazzo,41.187694,14.388484,15
CAIRO MONTENOTTE,S00879,Cairo Montenotte,44.394747,8.278786,7
CALA SABINA,S12851,Cala Sabina,41.011012,9.5881,20
CALALZO PIEVE CADORE CORTINA,S02550,Calalzo PC Cort.,46.443829,12.388668,5
CALAMANDRANA,S00833,Calamandrana,44.738986,8.331572,1
CALATABIANO,S12321,Calatabiano,37.814684,15.226568,19
CALATAFIMI,S12151,Calatafimi,37.938858,12.856156,19
CALBEZANO,S06080,Calbezano,43.614896,11.866596,9
CALCERANICA,S02307,Calceranica,46.007384,11.240713,4
CALCIANO,S11455,Calciano,40.595117,16.202526,17
CALCIO,S01712,Calcio,45.532937,9.841342,3
CALDE`,S01117,Calde',45.945812,8.663157,3
CALDIERO,S02437,Caldiero,45.41407,11.169753,5
CALDONAZZO,S02308,Caldonazzo,45.997575,11.264815,4
CALENZANO,S06417,Calenzano,43.856429,11.14537,9
CALITRI PESCOPAGANO,S09620,Calitri Pescop.,40.884932,15.427962,15
CALLIANO,S02041,Calliano,45.934998,11.094665,4
CALOLZIOCORTE OLGINATE,S01524,Calolziocorte O.,45.801619,9.42698,3
CALOPEZZATI,S11815,Calopezzati,39.579022,16.819361,18
CALTAGIRONE,S12270,Caltagirone,37.225276,14.521165,19
CALTANISSETTA CENTRALE,S12381,Caltanissetta C.,37.48829,14.057396,19
CALTANISSETTA XIRBI,S12380,Caltanissetta X.,37.536296,14.056902,19
CALTIGNAGA,S00020,Caltignaga,45.519167,8.591602,1
CALUSCO,S01503,Calusco,45.684113,9.470646,3
CALUSO,S00158,Caluso,45.303194,7.902568,1
CALVISANO,S01843,Calvisano,45.346572,10.349411,3
CAMAIORE LIDO CAPEZZANO,S06043,Camaiore Lido C.,43.912176,10.24765,9
CAMBIANO,S06804,Cambiano,43.631183,10.958997,9
CAMBIANO SANTENA,S00456,Cambiano Santena,44.966491,7.773225,1
CAMERANO ASPIO,S07021,Camerano Aspio,43.529871,13.521044,11
CAMMARATA S.GIOVANNI GEMINI,S12207,Cammarata S.G.G.,37.653759,13.673791,19
CAMNAGO-LENTATE,S01316,Camnago-Lentate,45.668425,9.133451,3
CAMOGLI SAN FRUTTUOSO,S04716,Camogli S.F.,44.348166,9.156743,7
CAMPAGNA SERRE PERSANO,S09825,Campagna S.P.,40.595667,15.113986,15
CAMPELLO,S07219,Campello,42.822814,12.761253,10
CAMPIGLIA MARITTIMA,S06031,Campiglia M.ma,43.017118,10.586558,9
CAMPO DI CARNE,S08706,Campo di Carne,41.552116,12.635125,12
CAMPO DI GIOVE,S08903,Campo di Giove,42.007967,14.041492,13
CAMPO DI GIOVE-MONTE MAIELLA,S08919,Campo G.-Monte M,41.993262,14.069088,13
CAMPO DI NUSCO,S09626,Campo di Nusco,40.879143,15.129255,15
CAMPO DI TRENS ,S02007,Campo di Trens,46.869076,11.488231,4
CAMPOBASSO,S09459,Campobasso,41.558137,14.66393,14
CAMPOBELLO DI MAZARA,S12112,Campobello di M.,37.636256,12.733165,19
CAMPOBELLO RAVANUSA,S12385,Campobello Rav.,37.265731,13.946251,19
CAMPODARSEGO,S02527,Campodarsego,45.505721,11.900894,5
CAMPOFELICE,S12017,Campofelice,37.992615,13.876549,19
CAMPOFRANCO,S12211,Campofranco,37.510105,13.686777,19
CAMPOLATTARO,S09505,Campolattaro,41.285869,14.726853,15
CAMPOLEONE,S08602,Campoleone,41.642396,12.648341,12
CAMPOLIETO MONACILIONI,S09462,Campolieto M.,41.642573,14.76544,14
CAMPOLIGURE MASONE,S04105,Campoligure M.,44.530909,8.700878,7
CAMPOMAGGIORE,S11454,Campomaggiore,40.550772,16.086766,17
CAMPOMARINO,S11020,Campomarino,41.957398,15.042416,14
CAMPOMELA,S12815,Campomela,40.68139,8.638875,20
CAMPOMIGLIAIO,S06659,Campomigliaio,43.937241,11.303593,9
CAMPORA S.GIOV. SERRA AIELLO,S11745,Campora S.G.,39.068402,16.09102,18
CAMPORE,S00889,Campore,45.404992,7.62104,1
CAMPORGIANO,S06324,Camporgiano,44.161448,10.334849,9
CAMPOSAMPIERO,S02525,Camposampiero,45.568922,11.928293,5
CAMPOSANTO,S05314,Camposanto,44.787527,11.143587,8
CAMUCIA CORTONA,S06921,Camucia Cortona,43.261104,11.971245,9
CANCELLI DI FABRIANO,S07232,Cancelli di F.,43.300942,12.831848,11
CANCELLIERA,S08735,Cancelliera,41.710587,12.621758,12
CANCELLO,S09213,Cancello,40.993063,14.418877,15
CANCELLO ARNONE,S09002,Cancello Arnone,41.063369,14.02901,15
CANDELA,S11204,Candela,41.151439,15.533163,16
CANDELO,S00071,Candelo,45.547433,8.100103,1
CANDIA CANAVESE,S00157,Candia Canavese,45.329824,7.891819,1
CANDIA LOMELLINA,S00333,Candia Lomellina,45.179911,8.593156,3
CANDIDA,S11105,Candida,41.346664,15.996588,16
CANDIOLO,S00512,Candiolo,44.961155,7.598973,1
CANDOGLIA ORNAVASSO,S01011,Candoglia Ornav.,45.977489,8.419715,1
CANEGRATE,S01034,Canegrate,45.569235,8.926593,3
CANELLI,S00832,Canelli,44.716716,8.294544,1
CANETRA,S07429,Canetra,42.391578,13.029159,12
CANICATTI`,S12375,CANICATTI',37.359879,13.855395,19
CANIGA,S12812,Caniga,40.716116,8.526395,20
CANISTRO,S08812,Canistro,41.940854,13.41259,13
CANNARA,S07009,Cannara,43.019591,12.628709,10
CANNE DELLA BATTAGLIA,S11406,Canne d.Battag.,41.294583,16.146169,16
CANNETO SULL`OGLIO,S01848,Canneto s/Oglio,45.150211,10.37147,3
CANOSA DI PUGLIA,S11402,Canosa di Puglia,41.218556,16.053906,16
CANTALUPO DEL SANNIO,S09451,Cantalupo del S.,41.5174,14.6671,14
CANTU`,S01451,Cantu',45.752316,9.130321,3
CANTU`- CERMENATE,S01313,Cantu'-Cermenate,45.716236,9.099284,3
CANZO,S01099,Canzo,45.849157,9.270726,3
CAORSO,S01970,Caorso,45.042048,9.868157,8
CAPACCIO ROCCADASPIDE,S11702,Capaccio,40.454518,15.013551,15
CAPACI,S12145,Capaci,38.171794,13.232398,19
CAPALBIO,S08006,Capalbio,42.407974,11.370982,9
CAPANNELLE,S08672,Capannelle,41.830713,12.568884,12
CAPISTRELLO,S08850,Capistrello,41.97051,13.399276,13
CAPO BONIFATI,S11734,Capo Bonifati,39.558342,15.874052,18
CAPO D`ORLANDO-NASO,S12030,Capo d'Orlando,38.157941,14.744844,19
CAPO SPARTIVENTO,S11858,Capo Spartivento,37.924778,16.058342,18
CAPOCROCE,S08804,Capocroce,41.399228,13.205445,12
CAPODACQUA PIEVE FANONICA,S07215,Capodacqua P.F.,43.026769,12.7541,10
CAPOLONA,S06083,Capolona,43.563833,11.857415,9
CAPPELLE-MAGLIANO,S08525,Cappelle-Magl.,42.059369,13.372468,13
CAPRALBA,S01603,Capralba,45.443871,9.640015,3
CAPRANICA,S08311,Capranica,42.245195,12.157194,12
CAPRAROLA,S08110,Caprarola,42.303815,12.258238,12
CAPRIATI AL VOLTURNO,S09061,Capriati al V.,41.44279,14.070664,14
CAPRIOLO,S01622,Capriolo,45.64556,9.933806,3
CAPRIVA,S03301,Capriva,45.938764,13.517494,6
CAPUA,S09208,Capua,41.101306,14.210347,15
CARATE-CALO`,S01486,Carate-Calo',45.676451,9.252304,3
CARAVAGGIO,S01602,Caravaggio,45.491158,9.637723,3
CARBONA,S05120,Carbona,44.246876,11.09618,8
CARBONARA SCRIVIA,S04300,Carbonara Scriv.,44.860173,8.853772,1
CARBONIA SERBARIU,S12818,Carbonia Serb.,39.169508,8.509186,20
CARBONIA STATO,S12972,Carbonia S.,39.169598,8.509613,20
CARDILLO ZEN,S12140,Cardillo Z.E.N.,38.17495,13.296897,19
CARENTINO,S00839,Carentino,44.831303,8.470474,1
CARIATI,S11818,Cariati,39.496884,16.952018,18
CARIMATE,S01315,Carimate,45.697094,9.107188,3
CARINI,S12127,Carini,38.147696,13.186624,19
CARINI TORRE CIACHEA,S12799,Carini Torre C.,38.16149,13.219641,19
CARISIO,S00055,Carisio,45.403164,8.21249,1
CARMAGNOLA,S00601,Carmagnola,44.846944,7.72797,1
CARMIGNANO DI BRENTA,S02532,Carmignano di Br,45.621354,11.714891,5
CARNATE USMATE,S01511,Carnate Usmate,45.653072,9.375089,3
CARNIA,S03016,Carnia,46.373634,13.132847,6
CARONIA,S12025,Caronia,38.034475,14.443761,19
CARONNO PERTUSELLA,S01076,Caronno Pertus.,45.598212,9.058541,3
CAROVIGNO,S11133,Carovigno,40.737337,17.683791,16
CAROVILLI-ROCCASICURA,S08914,Carovilli-Roccas,41.712485,14.299732,14
CARPANE`VALSTAGNA,S02502,Carpane'Valstag.,45.860128,11.661183,5
CARPI,S02349,Carpi,44.782919,10.891952,8
CARPIGNANO SESIA,S00971,Carpignano,45.528934,8.422898,1
CARPINONE,S09050,Carpinone,41.588038,14.326783,14
CARRARA AVENZA,S06005,Carrara Avenza,44.051239,10.062927,9
CARRITO-ORTONA,S08533,Carrito-Ortona,42.026506,13.720179,13
CARRUBA,S12326,Carruba,37.694344,15.196143,19
CARRU` CLAVESANA,S00738,Carru' Clavesana,44.479548,7.891414,1
CARSOLI,S08519,Carsoli,42.09578,13.080388,13
CARUGO - GIUSSANO,S01091,Carugo-Giussano,45.705978,9.199533,3
CASABIANCA,S08730,Casabianca,41.788327,12.60431,12
CASACALENDA GUARDIALFIERA,S09465,Casacalenda G.,41.738109,14.849602,14
CASAL SABINI,S11309,Casal Sabini,40.799021,16.647908,16
CASALBORDINO POLLUTRI,S07821,Casalbordino P.,42.193653,14.633045,13
CASALBUONO,S09910,Casalbuono,40.214093,15.686095,15
CASALBUTTANO,S01609,Casalbuttano,45.255398,9.962361,3
CASALE MONFERRATO,S00314,Casale Monferr.,45.133928,8.460292,1
CASALE POPOLO,S00179,Casale Popolo,45.160434,8.44055,1
CASALECCHIO DI RENO,S05101,Casalecchio R.,44.474298,11.276097,8
CASALECCHIO GARIBALDI,S05111,Casalecchio G.,44.482995,11.272474,8
CASALEGGIO,S00972,Casaleggio,45.491298,8.490369,1
CASALETTO,S09922,Casaletto,45.408768,9.63254,3
CASALETTO VAPRIO,S01604,Casaletto Vaprio,45.408641,9.631746,3
CASALMAGGIORE,S01850,Casalmaggiore,44.993139,10.425023,3
CASALNUOVO,S09216,Casalnuovo,40.915559,14.35296,15
CASALPUSTERLENGO,S01827,Casalpusterlengo,45.182473,9.653627,3
CASANOVA KAISERAU,S02059,Casanova Kais.,46.480248,11.315812,4
CASARSA,S02830,Casarsa,45.953002,12.8406,6
CASCINA,S06505,Cascina,43.674542,10.545225,9
CASELLE,S00087,Caselle,45.176075,7.645108,1
CASELLE AEROPORTO,S00088,Caselle Aeropor.,45.191971,7.640398,1
CASERTA,S09211,Caserta,41.068655,14.328457,15
CASINO DI TERRA,S06751,Casino di Terra,43.328581,10.662975,9
CASLETTO-ROGENO,S01457,Casletto-Rogeno,45.786028,9.275375,3
CASLINO D'ERBA,S01098,Caslino D'erba,45.835255,9.232747,3
CASOLI,S07991,Casoli,42.116302,14.291342,13
CASORATE SEMPIONE,S01029,Casorate Semp.,45.675075,8.743954,3
CASORIA,S09009,Casoria,40.907762,14.29874,15
CASSAGO-NIBIONNO-BULCIAGO,S01490,Cassago-N.-B.,45.746243,9.279834,3
CASSANO ALL`IONIO,S11900,Cassano,39.726326,16.35218,18
CASSANO D`ADDA,S01707,Cassano d'Adda,45.514372,9.512746,3
CASSANO IRPINO,S09611,Cassano Irpino,40.869227,15.031213,15
CASSINE,S00864,Cassine,44.751513,8.533613,1
CASSINO,S08671,Cassino,41.484306,13.832125,12
CASSOLA,S02506,Cassola,45.732291,11.795866,5
CASTAGNARO,S02368,Castagnaro,45.119349,11.403936,5
CASTAGNETO CARDUCCI,S06029,Castagneto C.,43.16816,10.56399,9
CASTAGNO,S05122,Castagno,44.012359,10.91538,9
CASTAGNOLE DELLE LANZE,S00828,Castagnole,44.749341,8.152836,1
CASTEGGIO,S01942,Casteggio,45.017365,9.124595,3
CASTEL BAGNOLO DI ORTE,S08114,Castel Bagnolo,42.400183,12.400781,12
CASTEL DI SANGRO,S08910,Castel di Sangro,41.777829,14.112049,13
CASTEL D`ARIO,S02382,Castel d'Ario,45.183399,10.97531,3
CASTEL FRENTANO,S07987,Castel Frentano,42.203437,14.376015,13
CASTEL GANDOLFO,S08703,Castel Gandolfo,41.746946,12.652266,12
CASTEL LAGOPESOLE,S11212,Castel Lagopes.,40.787682,15.758093,17
CASTEL MADAMA,S08510,Castel Madama,41.988389,12.864938,12
CASTEL S.ANGELO,S07407,Castel S.Angelo,42.379666,13.017612,12
CASTEL S.GIORGIO ROCCAPIEMONTE,S09704,Castel S.Giorgio,40.758713,14.692352,15
CASTEL S.GIOVANNI,S01948,Castel S.Giovan.,45.063272,9.436856,8
CASTEL S.PIETRO TERME,S05053,Castel S.P.,44.407376,11.597681,8
CASTELBELLO,S02208,Castelbello,46.626994,10.897884,4
CASTELBOLOGNESE,S05056,Castelbolognese,44.325391,11.804174,8
CASTELBUONO,S12020,Castelbuono,38.014606,14.108578,19
CASTELDACCIA,S12010,Casteldaccia,38.060474,13.536867,19
CASTELDARNE ,S02105,Casteldarne,46.797708,11.844223,4
CASTELDEBOLE,S05102,Casteldebole,44.503974,11.27456,8
CASTELFERRETTI,S07200,Castelferretti,43.607303,13.357519,11
CASTELFIORENTINO,S06802,Castelfiorentino,43.60542,10.968048,9
CASTELFRANCI,S09609,Castelfranci,40.935968,15.038655,15
CASTELFRANCO D'EMILIA,S05037,C.Franco Emilia,44.597381,11.056408,8
CASTELFRANCO IN MISCANO,S09323,Castelfranco M.,41.298449,15.082143,15
CASTELFRANCO VENETO,S02537,Castelfranco V.,45.666439,11.934315,5
CASTELGUELFO,S05012,Castelguelfo,44.836434,10.176706,8
CASTELLALTO CANZANO,S07901,Castellalto C.,42.69564,13.793043,13
CASTELLAMMARE DEL GOLFO,S12120,Castellammare G.,38.024309,12.912209,19
CASTELLAMMARE DI STABIA,S09756,Cast.re di Stab.,40.701398,14.483737,15
CASTELLANETA,S11507,Castellaneta,40.62003,16.93063,16
CASTELLANETA MARINA,S11463,Castellaneta M.,40.481111,16.965434,16
CASTELLANZA,S01136,Castellanza,45.610672,8.87579,3
CASTELLAZZO CASALCERMELLI,S04000,Castellazzo C.,44.843839,8.589645,1
CASTELLEONE,S01606,Castelleone,45.301826,9.76779,3
CASTELLETTO BUSCA,S00720,Castellet. Busca,44.501319,7.463939,1
CASTELLETTO TICINO,S01123,Castelletto Tic.,45.710757,8.638259,1
CASTELLINA CH,S06808,Castellina Ch.,43.408744,11.212379,9
CASTELLINA MARITTIMA,S06024,Castellina Marit,43.406122,10.495776,9
CASTELLINO TANARO,S00741,Castellino T.,44.41657,7.974321,1
CASTELLO DI GODEGO,S02507,Castello Godego,45.688082,11.87759,5
CASTELLO D`ANNONE,S00465,Castel.d'Annone,44.878742,8.312724,1
CASTELLUCCHIO,S01923,Castellucchio,45.144293,10.64749,3
CASTELLUCCIO,S09920,Castelluccio,42.828767,13.20824,10
CASTELL`ALFERO,S00343,Castell'Alfero,44.986347,8.220882,1
CASTELMAGGIORE,S05724,Castelmaggiore,44.576055,11.366901,8
CASTELNUOVO,S02093,Castelnuovo D.G.,45.430843,10.758273,5
CASTELNUOVO BELBO,S00836,Castelnuovo B.,44.798127,8.42516,1
CASTELNUOVO BERARDENGA,S06812,Castelnuovo Ber.,43.306882,11.484912,9
CASTELNUOVO DI GARFAGNANA,S06300,Castelnuovo Gar.,44.116351,10.409054,9
CASTELPLANIO CUPRAMONTANA,S07204,Castelplanio C.,43.481403,13.084733,11
CASTELRAIMONDO CAMERINO,S07302,Castelraimondo,43.210511,13.057274,11
CASTELROSSO,S00233,Castelrosso,45.201802,7.932162,1
CASTELSPINA PORTANOVA,S04001,Castelspina P.,44.796662,8.62203,1
CASTELVECCHIO PASCOLI,S06302,Castelvecchio P.,44.09007,10.455061,9
CASTELVETERE,S09608,Castelvetere,40.952072,15.011348,15
CASTELVETRANO,S12113,Castelvetrano,37.684977,12.799552,19
CASTELVETRO,S01960,Castelvetro,45.100095,9.982181,8
CASTIGLION DEL LAGO,S06923,Castigl.del Lago,43.123195,12.032077,10
CASTIGLION FIORENTINO,S06920,Castigl.Fiorent.,43.34075,11.914362,9
CASTIGLIONCELLO,S06729,Castiglioncello,43.404619,10.414354,
CASTIGLIONE COSENTINO,S11909,Castiglione C.,39.35542,16.244388,18
CASTIGLIONE DI SICILIA,S12362,Castiglione di S,37.88674,15.097013,19
CASTIGLIONE IN TEVERINA,S08205,Castiglione in T,42.648544,12.234913,10
CASTIONE ANDEVENNO,S01429,Castione A.,46.161659,9.806151,3
CASTIONE DEI MARCHESI,S01964,Castione d.March,44.915157,10.044449,8
CASTRO-POFI,S08663,Castro-Pofi,41.533014,13.410741,12
CASTRONNO,S01208,Castronno,45.74524,8.810302,3
CATANIA ACQUICELLA,S12337,Catania Acq.lla,37.492765,15.074699,19
CATANIA AER. FONTANAROSSA,S12336,CataniaAeroporto,37.475336,15.061787,19
CATANIA CENTRALE,S12332,Catania Centrale,37.506211,15.099417,19
CATANIA EUROPA,S12335,Catania Europa,37.515868,15.106636,19
CATANIA OGNINA,S12333,Catania Ognina,37.530129,15.110029,19
CATANZARO,S11956,Catanzaro,38.896222,16.599081,18
CATANZARO LIDO,S11833,Catanzaro Lido,38.821788,16.612975,18
CATENANUOVA,S12244,Catenanuova,37.562026,14.688263,19
CATTOLICA S.GIOVANNI GABICCE,S07102,Cattolica S.G.G.,43.959931,12.745087,8
CAULONIA,S11846,Caulonia,38.343785,16.467278,18
CAVA CARBONARA,S00279,Cava Carbonara,45.147055,9.071387,3
CAVA DEI TIRRENI,S09816,Cava Dei Tirreni,40.703662,14.708461,15
CAVA MANARA,S01804,Cava Manara,45.144867,9.115332,3
CAVA TIGOZZI,S01914,Cava Tigozzi,45.156823,9.955827,3
CAVAGNOLO BRUSASCO,S00423,Cavagnolo Brus.,45.153655,8.047534,1
CAVALLEGGERI AOSTA,S09113,Cavalleggeri A.,40.819292,14.185679,15
CAVALLERMAGGIORE,S00603,Cavallermaggiore,44.708147,7.692108,1
CAVANELLA D`ADIGE,S05425,Cavan.Adige,45.111263,12.249312,5
CAVANELLA PO,S05422,Cavanella Po,45.052208,12.134893,5
CAVARIA OGGIONA JERAGO,S01210,Cavaria Oggiona,45.698145,8.8035,3
CAVAZZALE,S02147,Cavazzale,45.596079,11.569823,5
CAVI,S04724,Cavi,44.29354,9.37251,7
CA` DI BOSCHETTI,S06044,Ca'di Boschetti,44.117925,9.857449,7
CECCANO,S08664,Ceccano,41.573583,13.336417,12
CECCHINA,S08732,Cecchina,41.692029,12.650992,12
CECINA,S06026,Cecina,43.31028,10.514225,9
CEFALU`,S12019,Cefalu',38.03285,14.019526,19
CEGGIA,S02665,Ceggia,45.688394,12.633987,5
CELANO-OVINDOLI,S08528,Celano-Ovindoli,42.076999,13.543398,13
CELLE,S04530,Celle,44.34246,8.542626,7
CELLE BULGHERIA ROCCAGLORIOSA,S11716,Celle Bulgheria,40.10287,15.39473,15
CENGIO,S00745,Cengio,44.390798,8.191824,7
CENTALLO,S00608,Centallo,44.496223,7.591035,1
CENTOLA,S11715,Centola,40.090672,15.34674,15
CEPRANO-FALVATERRA,S08666,Ceprano-Falvater,41.523962,13.523481,12
CERBERE,S78500,Cerbere,45.704582,9.489301,3
CERCENASCO,S00541,Cercenasco,44.864897,7.495302,1
CERCHIO,S08530,Cerchio,42.061082,13.597972,13
CERCINA,S06956,Cercina,43.900121,11.265279,9
CERDA,S12200,Cerda,37.953964,13.78447,19
CEREA,S02364,Cerea,45.196556,11.213921,5
CEREGNANO,S05417,Ceregnano,45.05062,11.870958,5
CERIALE,S04517,Ceriale,44.098922,8.234216,7
CERIGNOLA,S11103,Cerignola,41.315664,15.897298,16
CERLANO LAGHETTO,S01934,Cerlano Laghetto,45.625021,9.08003,3
CERNUSCO-MERATE,S01513,Cernusco-Merate,45.695096,9.396794,3
CERRETO D`ESI,S07300,Cerreto d'Esi,43.32205,12.98319,11
CERTALDO,S06803,Certaldo,43.547124,11.037711,9
CERTOSA DI PAVIA,S01803,Certosa di Pavia,45.256927,9.154456,3
CERVARO,S11200,Cervaro,41.397604,15.595704,16
CERVIA-MILANO MARITTIMA,S05814,Cervia M.M.,44.258444,12.347096,8
CERVIGNANO A.G.,S03207,Cervignano A.G.,45.823948,13.342866,6
CERVIGNASCO,S00546,Cervignasco,44.699669,7.518644,1
CERVINARA,S09015,Cervinara,41.112701,14.852669,15
CERVO SAN BARTOLOMEO,S04512,Cervo S.Bartol.,43.923901,8.109704,7
CESANO BOSCONE,S01112,Cesano Boscone,45.430713,9.093278,3
CESANO DI ROMA,S08319,Cesano,42.061833,12.326669,12
CESANO MADERNO,S01086,Cesano Maderno,45.630862,9.142906,3
CESATE,S01075,Cesate,45.590892,9.066666,3
CESE,S09473,Cese,41.210883,14.787329,15
CESENA,S05066,Cesena,44.145449,12.24964,8
CESENATICO,S05815,Cesenatico,44.20065,12.391186,8
CETRARO,S11735,Cetraro,39.512553,15.939263,18
CEVA,S00742,Ceva,44.389861,8.031958,1
CHAMBAVE,S00141,Chambave,45.744163,7.557301,2
CHATILLON SAINT VINCENT,S00142,Chatillon S.V.,45.7434,7.619309,2
CHERASCO,S00733,Cherasco,44.65261,7.867211,1
CHIANCHE CEPPALONI,S09510,Chianche Ceppal.,41.050122,14.777618,15
CHIARAVALLE,S07201,Chiaravalle,43.595503,13.327655,11
CHIARI,S01713,Chiari,45.54011,9.926474,3
CHIARONE,S08007,Chiarone,42.387528,11.446123,9
CHIASSO,S01301,Chiasso,45.830736,9.03421,3
CHIAVARI,S04722,Chiavari,44.315156,9.322464,7
CHIAVENNA,S01400,Chiavenna,46.321258,9.407129,3
CHIERI,S00500,Chieri,45.007008,7.827077,1
CHIETI,S07712,Chieti,42.356905,14.13815,13
CHIETI-MAD.D.P.,S07025,Chieti-M.d.P,42.373572,14.14256,13
CHIEUTI SERRACAPRIOLA,S11021,Chieuti Serrac.,41.921962,15.156645,16
CHIGNOLO PO,S01868,Chignolo Po,45.160942,9.494196,3
CHIOGGIA,S05428,Chioggia,45.210243,12.275235,5
CHIOMONTE,S00206,Chiomonte,45.119876,6.988716,1
CHIRIALZA,S12899,Chirialza,40.830877,9.36732,20
CHIUDUNO,S01536,Chiuduno,45.650449,9.846924,3
CHIURO,S01435,Chiuro,46.164658,9.992317,3
CHIUSA ,S02017,Chiusa,46.642611,11.572678,4
CHIUSANO COSSOMBRONE,S00429,Chiusano Cossom.,44.985034,8.128822,1
CHIUSI C.T.,S06925,Chiusi C.T.,43.002466,11.957893,9
CHIVASSO,S00232,Chivasso,45.193637,7.889666,1
CIAMPINO,S08650,Ciampino,41.804442,12.599546,12
CIARDES,S02209,Ciardes,46.635274,10.940542,4
CINISI TERRASINI,S12126,Cinisi Terrasini,38.155314,13.096673,19
CIRE',S00090,Cir¨¨,45.230282,7.602488,1
CIRELLA MAJERA`,S11730,Cirella,39.708556,15.812289,18
CIRO',S11820,Cir¨°,39.368701,17.116997,18
CISANO CAPRINO BERGAMASCO,S01525,Cisano Capr.B.,45.739606,9.474261,3
CISMON DEL GRAPPA,S02500,Cismon d.Grappa,45.919664,11.729272,5
CISTERNA DI LATINA,S08603,Cisterna di Lat.,41.586511,12.827538,12
CISTERNINO,S11131,Cisternino,40.816652,17.456899,16
CITERNA TARO,S06154,Citerna Taro,44.63548,10.032939,8
CITTADELLA,S02535,Cittadella,45.643868,11.789857,5
CITTADUCALE,S07406,Cittaducale,42.387764,12.94269,12
CITTA` DELLA PIEVE,S08200,CITTA' D. PIEVE,42.936221,11.971127,10
CIVATE,S01462,Civate,45.831295,9.352877,3
CIVIDALE,S03056,CIVIDALE,46.095417,13.424012,6
CIVITA CASTELLANA,S08211,Civita Castel.,42.346593,12.453821,12
CIVITA D`ANTINO-MORINO,S08853,Civita d'Antino,41.870632,13.458868,13
CIVITANOVA MARCHE,S07506,Civitanova,43.3091,13.7257,11
CIVITAVECCHIA,S08010,Civitavecchia,42.088287,11.79815,12
CIVITAVECCHIA M.MA,S08012,Civitavecchia M.,42.099843,11.78438,12
CIVITAVECCHIA VIALE DELLA VITTORIA,S08024,C.Vecchia V.Vitt,42.086518,11.800599,12
CIVITELLA - BADIA AL PINO,S06066,Civitella-Badia,43.401602,11.770265,9
CIVITELLA PAGANICO,S06822,Civitella,42.94028,11.283536,9
CIVITELLA ROVETO,S08852,Civitella Roveto,41.916419,13.424882,13
CIXERRI,S12970,Cixerri,39.26982,8.578934,20
CLASSE,S05812,Classe,44.382033,12.234995,8
COCCAGLIO,S01540,Coccaglio,45.560971,9.977648,3
COCCONATO,S00425,Cocconato,45.082926,8.070145,1
COCULLO,S08534,Cocullo,42.040723,13.776636,13
CODIGORO,S05799,Codigoro,44.836669,12.102513,8
CODOGNO,S01828,Codogno,45.154897,9.701376,3
CODOLA,S09703,Codola,40.767687,14.665622,15
CODROIPO,S02831,Codroipo,45.9657,12.976543,6
COGOLETO,S04532,Cogoleto,44.389762,8.643906,7
COLDRANO-MARTELLO,S02206,Coldrano-Martell,46.618902,10.821204,4
COLFELICE,S08820,Colfelice,41.555544,13.602129,12
COLICO,S01420,Colico,46.138019,9.375222,3
COLLARMELE,S08548,Collarmele,42.074093,13.701295,13
COLLE ISARCO ,S02005,Colle Isarco,46.937951,11.441336,4
COLLE MATTIA,S08651,Colle Mattia,41.832756,12.728329,12
COLLE VAL D`ELSA,S06840,COLLE V.D'ELSA,43.421908,11.127681,9
COLLECCHIO,S06151,Collecchio,44.755339,10.21228,8
COLLEDIMEZZO,S07994,Colledimezzo,41.985802,14.381124,13
COLLEFERRO-SEGNI-PALIANO,S08657,Colleferro,41.740062,13.00299,12
COLLEGNO,S00217,Collegno,45.078854,7.574131,1
COLLESALVETTI,S06018,Collesalvetti,43.586586,10.470534,9
COLLEVECCHIO,S08221,Collevecchio,42.298089,12.520546,12
COLLI DEL TRONTO,S07024,Colli del Tronto,42.86723,13.748818,11
COLLI DI MONTE BOVE,S08520,Colli di M. Bove,42.097103,13.15057,13
COLMEGNA,S01111,Colmegna,46.024876,8.752488,3
COLOGNE,S01539,Cologne,45.576627,9.935316,3
COLONNA GALLERIA,S08653,Colonna Gall.,41.850703,12.785663,12
COLORNO,S01852,Colorno,44.927943,10.382935,8
COMIGNAGO,S00050,Comignago,45.714296,8.566362,1
COMISO,S12411,Comiso,36.947184,14.60037,19
COMO S. GIOVANNI,S01307,Como S.Giovanni,45.808946,9.072331,3
COMPIOBBI,S06902,Compiobbi,43.782527,11.358695,9
COMPRE S.VINCENZO,S08816,Compre S.Vinc.,41.757185,13.608098,12
CONA F. C.,S05169,Cona F. C.,44.80382,11.71158,8
CONDOFURI,S11861,Condofuri,37.92761,15.874952,18
CONDOVE,S00212,Condove,45.106689,7.317022,1
CONEGLIANO,S02706,Conegliano,45.884706,12.298909,5
CONSELICE,S05950,Conselice,44.510987,11.831949,8
CONSELICE ZONA INDUSTRIALE,S05004,Conselice Z.I.,44.511192,11.832321,8
CONTEA LONDA,S06702,Contea Londa,43.865124,11.531603,9
CONTESSE,S12355,Contesse,38.16193,15.544717,19
CONTIGLIANO,S07404,Contigliano,42.412072,12.779144,12
CONTURSI TERME,S09826,Contursi Terme,40.630046,15.235486,15
CONZA ANDRETTA CAIRANO,S09618,Conza Andretta,40.883791,15.344264,15
CORBETTA S. STEFANO,S01041,Corbetta S.Stef.,45.480829,8.917457,3
CORBEZZI,S05115,Corbezzi,43.993948,10.919676,9
CORCHIANO,S08112,Corchiano,42.361351,12.341846,12
CORDOVADO SESTO,S02661,Cordovado Sesto,45.850653,12.877784,6
CORIGLIANO CALABRO,S11812,Corigliano Cal.,39.628223,16.514949,18
CORMANO - BRUSUGLIO,S01080,Cormano-Brusugli,45.533855,9.174285,3
CORMONS,S03300,Cormons,45.957519,13.461563,6
CORNIGLIA,S04734,Corniglia,44.119938,9.711051,7
CORNINO,S03053,Cornino,46.220516,13.010581,6
CORNUDA,S02569,Cornuda,45.833846,12.012886,5
CORONELLA,S05719,Coronella,44.796221,11.544924,8
CORRIDONIA MOGLIANO,S07308,Corridonia M.,43.281616,13.477697,11
CORSANO,S09324,Corsano,41.164472,14.958463,15
CORSICO,S01064,Corsico,45.434688,9.105156,3
CORTEOLONA,S01865,Corteolona,45.159701,9.375477,3
COSENZA,S11910,Cosenza,39.318386,16.260955,18
COSIO TRAONA,S01424,Cosio Traona,46.135564,9.525498,3
COSSATO,S00973,Cossato,45.564216,8.175964,1
COSTA,S02375,Costa,45.045766,11.696511,5
COSTA MASNAGA,S01491,Costa Masnaga,45.76343,9.285231,3
COSTIGLIOLE (MOTTA DI),S00348,Costigliole,44.807559,8.145712,1
COSTIGLIOLE D`ASTI,S00829,Costigliole d'A.,44.754882,8.20477,1
COSTIGLIOLE SALUZZO,S00702,Costigliole Sal.,44.570196,7.482075,1
COTIGNOLA,S05956,Cotignola,44.387077,11.938037,8
COTILIA,S07432,Cotilia,42.372602,12.96871,12
COURGNE',S00888,CuorgnµÏ?,45.388773,7.654503,1
COZZE,S11151,Cozze,41.017835,17.159396,16
COZZO,S00332,Cozzo,45.182989,8.603292,3
CREMA,S01605,Crema,45.366864,9.694209,3
CREMONA,S01915,Cremona,45.143215,10.017951,3
CRESCENTINO,S00172,Crescentino,45.194302,8.107175,1
CRESPINO DEL LAMONE,S06607,Crespino d.Lam.,44.041928,11.548792,9
CRESSA FONTANETO,S00017,Cressa Fontaneto,45.646331,8.498435,1
CREVALCORE,S05316,Crevalcore,44.719156,11.152625,8
CROCETTA,S07988,Crocetta,45.058433,7.665171,1
CROCICCHIE,S08317,Crocicchie,42.0559,12.238888,12
CROPANI,S11830,Cropani,38.921968,16.813562,18
CROTONE,S11823,Crotone,39.0845,17.108418,18
CRUCOLI,S11819,Crucoli,39.449588,17.040718,18
CUCCIAGO,S01312,Cucciago,45.740813,9.082205,3
CUNEO,S00610,Cuneo,44.387914,7.536235,1
CUNEO GESSO,S00611,Cuneo Gesso,44.394234,7.556017,1
CUNICO SCANDELUZZA,S00427,Cunico Scandel.,45.036947,8.11007,1
CUPONE,S08810,Cupone,41.964628,13.377481,13
CUPRAMARITTIMA,S07511,Cupramarittima,43.02349,13.860812,11
CUREGGIO,S00051,Cureggio,45.672538,8.456282,1
CURINGA,S11972,Curinga,38.827617,16.319811,18
CUSANO,S02700,Cusano,45.945427,12.757485,6
CUTRO,S11826,Cutro,39.02593,16.963809,18
CUZZAGO,S01010,Cuzzago,45.993682,8.373989,1
Cesano M(NS),S01798,Ces.MaNS,45.778754,9.122097,3
DINAZZANO,S05981,DINAZZANO,44.574651,10.749241,8
DARFO-CORNA,S01006,Darfo-Corna,45.884416,10.181513,3
DECIMOMANNU,S12888,Decimomannu,39.304593,8.965808,20
DEGO,S00877,Dego,44.448003,8.308469,7
DEIVA MARINA,S04728,Deiva Marina,44.217306,9.519022,7
DELEBIO,S01422,Delebio,46.13865,9.461168,3
DERBY,S00162,Derby,45.730289,7.087018,2
DERVIO,S01408,Dervio,46.077709,9.30596,3
DESENZANO,S02084,Desenzano,45.462677,10.536322,3
DESIO,S01320,Desio,45.620112,9.218495,3
DEV. INT. LL/DD CITTA' DELLA PIEVE,S06097,Dev.Int.LL/DDcpv,42.953784,12.005538,10
DIAMANTE BUONVICINO,S11731,Diamante,39.67701,15.824278,18
DIANO,S04524,Diano,43.925064,8.073267,7
DICOMANO,S06701,Dicomano,43.893489,11.519148,9
DIECIMO - PESCAGLIA,S06310,Diecimo-Pescagl.,43.959404,10.507844,9
DITTAINO,S12240,Dittaino,37.564605,14.462429,19
DIVACA,S44200,Divaca,45.681931,13.965059,
DOBBIACO ,S02113,Dobbiaco,46.725049,12.225122,4
DOGATO,S05174,Dogato,44.749972,11.897109,8
DOLE VILLE,S71341,Dole Ville,41.271044,14.313454,15
DOLO,S02587,Dolo,45.453466,12.07161,5
DOMEGLIARA,S02055,Domegliara,45.522348,10.820408,5
DOMODOSSOLA,S01003,Domodossola,46.115429,8.296684,1
DONNA,S04202,Donna,44.818902,8.712792,1
DONNAFUGATA,S12412,Donnafugata,36.882055,14.568968,19
DONNAZ,S00148,Donnaz,45.602713,7.769563,2
DORIO,S01407,Dorio,46.102756,9.319063,3
DORMELLETTO,S01025,Dormelletto,45.7233,8.581906,1
DORMELLETTO PAESE,S00980,Dormelletto P.,45.730032,8.574324,1
DOSSOBUONO,S02330,Dossobuono,45.392382,10.914831,5
DRAGONI,S09021,Dragoni,41.271124,14.313572,15
DRONERO,S00722,Dronero,44.464974,7.423245,1
DUBINO,S01405,Dubino,46.172802,9.432188,3
DUEVILLE,S02146,Dueville,45.635,11.546108,5
DUOMO VIA VERNIERI,S09819,Duomo V.Vernieri,40.681475,14.76307,15
Dev.Int. DD/AV,S08220,D.I.DDAV,42.274228,12.607523,12
EBOLI,S09824,Eboli,40.611057,15.052382,15
ECA NASAGO`,S00926,Eca Nasago',44.160769,7.965137,1
ECCELLENTE,S11788,Eccellente,38.809696,16.232598,18
EGNA-TERMENO ,S02032,Egna-Termeno,46.319418,11.257177,4
EGNAZIA,S11154,Egnazia,40.901727,17.329607,16
ELLERA CORCIANO,S07003,Ellera Corciano,43.094699,12.318574,10
ELMAS AEROPORTO,S12819,Elmas Aeroporto,39.257362,9.063553,20
EMPOLI,S06510,Empoli,43.715708,10.94915,9
ENAS,S12856,Enas,40.85706,9.431095,20
ENNA,S12238,Enna,37.581134,14.289579,19
ENZITETO/CATINO,S11041,Enziteto,41.160716,16.74591,16
EQUI TERME,S06226,Equi Terme,44.170282,10.153624,9
ERBA,S01096,Erba,45.829711,9.277515,3
ESTE,S02396,Este,45.220954,11.662931,5
EXILLES,S00251,Exilles,45.08999,6.927344,1
FERRARA BOSCHETTO,S05196,Fer.Bos.,44.819131,11.633853,8
FERRARA-CONA OSPEDALE,S05193,Fer.C.O.,44.8023,11.69642,8
FIORANO,S05182,Fiorano,44.561132,10.812597,8
FORMIGINE,S05183,Formig.,44.577745,10.846558,8
FIRENZE S.M.N.,S06421,Firenze S.M.N.,43.776893,11.247373,9
FABRIANO,S07208,Fabriano,43.345429,12.905336,11
FABRIANO CA` MAIANO,S07059,Fabriano Ca' M.,43.345598,12.873939,11
FABRICA DI ROMA,S08111,Fabrica di Roma,42.334416,12.307467,12
FABRO-FICULLE,S08201,Fabro Ficulle,42.874851,12.04123,10
FAENZA,S05058,Faenza,44.293594,11.883268,8
FAE`FORTOGNA,S02557,Fae'Fortogna,46.239439,12.294121,5
FAGARE,S02762,Fagare,45.70705,12.444296,5
FAGNANO CAMPANA,S07420,Fagnano Campana,42.250575,13.562743,13
FALCIANO MONDRAGONE CAR.,S09001,Falciano Mond.,41.123525,13.971792,15
FALCONARA,S12405,Falconara,37.113529,14.052516,19
FALCONARA IBLEA,S12440,Falconara Iblea,43.630345,13.398293,11
FALCONARA MARITTIMA,S07111,Falconara M.,43.630577,13.397378,11
FALCONARA STADIO,S07117,Falconara Stadio,43.626158,13.381179,11
FALCONE,S12038,Falcone,38.119573,15.080467,19
FALERNA,S11747,Falerna,38.970726,16.14991,18
FANNA - CAVASSO,S03083,Fanna-Cavasso,46.187072,12.7707,6
FANO,S07105,Fano,43.842977,13.02478,11
FANZOLO,S02575,Fanzolo,45.708253,11.992069,5
FARA,S00112,Fara,45.550556,8.458049,1
FARA SABINA,S08214,Fara Sabina,42.155546,12.648323,12
FARIGLIANO,S00737,Farigliano,44.513337,7.90947,1
FASANO,S11130,Fasano,40.851753,17.3859,16
FAUGLIA - LORENZANA,S06021,Fauglia-Lorenz.,43.551831,10.50304,9
FAVAZZINA,S11771,Favazzina,38.258742,15.756625,18
FAVRIA,S00885,Favria,45.336927,7.690619,1
FEDERICO,S12136,Federico,38.144862,13.344966,19
FELEGARA - S.ANDREA BAGNI,S06103,Felegara S.A.B.,44.724809,10.114523,8
FELETTO,S00883,Feletto,45.303796,7.744222,1
FELIZZANO,S00468,Felizzano,44.893367,8.437155,1
FELONICA PO,S05162,Felonica Po,44.971936,11.33902,3
FELTRE,S02564,Feltre,46.012884,11.911493,5
FERENTINO-SUPINO,S08661,Ferentino-Supino,41.6564,13.246971,12
FERNO LONATE POZZOLO,S01138,Ferno L. Pozzolo,45.608692,8.755889,3
FEROLETO ANTICA PIANOPOLI,S11952,Feroleto A.P.,38.938255,16.36622,18
FERRANDINA,S11458,Ferrandina,40.516566,16.475276,17
FERRANIA,S04804,Ferrania,44.365136,8.328885,7
FERRARA,S05712,Ferrara,44.843047,11.603594,8
FERRARA ALEOTTI,S05167,Ferrara Aleotti,44.842899,11.603703,8
FERRARA P. RENO,S05168,Ferrara P. Reno,44.889762,11.795115,8
FERRERA LOMELLINA,S00404,Ferrera Lomell.,45.111807,8.862805,3
FERRUZZANO,S11856,Ferruzzano,38.016304,16.134486,18
FI ROVEZZANO,S06901,FI Rovezzano,43.768657,11.307372,9
FIDENE,S08235,Fidene,41.979773,12.508451,12
FIDENZA,S05009,Fidenza,44.86773,10.06339,8
FIERA,S12137,Fiera,38.144004,13.351336,19
FIESOLE CALDINE,S06953,Fiesole Caldine,43.833697,11.266047,9
FIGLINE VALDARNO,S06908,Figline Valdarno,43.621596,11.473652,9
FILATTIERA,S06165,Filattiera,44.33137,9.933352,9
FILDIDONNA,S12277,Fildidonna,37.310867,14.808848,19
FILIANO,S11211,Filiano,40.837161,15.752285,17
FINALE LIGURE MARINA,S04522,Finale Ligure M.,44.169116,8.34033,7
FIORENZUOLA,S05007,Fiorenzuola,44.928716,9.917403,8
FIRENZE CAMPO MARTE,S06900,Firenze C.Marte,43.776856,11.27702,9
FIRENZE CASTELLO,S06419,Firenze Castello,43.819444,11.21838,9
FIRENZE RIFREDI,S06420,Firenze Rifredi,43.800873,11.235729,9
FIRENZE STATUTO,S06430,Firenze Statuto,43.787273,11.249738,9
FISCIANO,S09519,Fisciano,40.759095,14.77486,15
FIUMEFREDDO BRUZIO,S11741,Fiumefreddo,39.246369,16.059012,18
FIUMEFREDDO DI SICILIA,S12322,Fiumefreddo di S,37.795247,15.205615,19
FIUMELATTE,S01412,Fiumelatte,45.999017,9.292857,3
FIUMETORTO,S12015,Fiumetorto,37.966939,13.774781,19
FIUMICINO AEROPORTO,S08411,Fiumicino Aerop.,41.793673,12.251728,12
FIVIZZANO - GASSANO,S06223,Fivizzano-Gass.,44.202672,10.091691,9
FIVIZZANO ROMETTA - SOLIERA,S06222,F.Rometta-Solie.,44.201526,10.05953,9
FOGGIA,S11100,Foggia,41.466,15.555816,16
FOGNANO,S06618,Fognano,44.203432,11.728113,8
FOLIGNO,S07217,Foligno,42.954261,12.711096,10
FOLLONICA,S06033,Follonica,42.926687,10.755775,9
FONDI - SPERLONGA,S08606,Fondi-Sperlonga,41.337663,13.424893,12
FONTAN SAORGE,S00621,Fontan Saorge,44.015673,7.645949,
FONTANA LIRI,S08818,Fontana Liri,41.609541,13.557637,12
FONTANA LIRI INFERIORE,S08819,Fontana Liri Inf,41.609367,13.556699,12
FONTANAFREDDA,S02702,Fontanafredda,45.967555,12.575266,6
FONTANAROSA,S09199,Fontanarosa,41.44698,13.864241,12
FONTANETTO PO,S00174,Fontanetto Po,45.191238,8.188697,1
FONTANIVA,S02534,Fontaniva,45.634723,11.749038,5
FONTEBUONA,S06619,Fontebuona,43.91751,11.265553,9
FONTECCHIO,S07421,Fontecchio,42.222822,13.604445,13
FORENZA,S11210,Forenza,40.866839,15.725331,17
FORGARIA BAGNI ANDUINS,S03054,Forgaria B.A.,46.203472,12.964109,6
FORLIMPOPOLI,S05065,Forlimpopoli B.,44.194165,12.128125,8
FORLI`,S05059,Forli',44.22413,12.054871,8
FORMIA-GAETA,S08640,Formia-Gaeta,41.258773,13.605996,12
FORNACI DI BARGA,S06304,Fornaci di Barga,44.045253,10.473173,9
FORNOVO,S06153,Fornovo,44.693791,10.102014,8
FORTE DEI MARMI SERRAVEZZA Q.,S06011,Forte Dei Marmi,43.97777,10.19936,9
FORTEZZA ,S02011,Fortezza,46.788841,11.609922,4
FOSCIANDORA - CESERANA,S06301,Fosciandora-Ces.,44.118559,10.444212,9
FOSSACESIA,S07819,Fossacesia,42.235097,14.524255,13
FOSSACESIA - TORINO DI SANGRO,S07018,Fossacesia/T.S.,42.237648,14.525456,13
FOSSALTA DI PIAVE,S02667,Fossalta Piave,45.624215,12.500393,5
FOSSALTA DI PORTOGRUARO,S03201,Fossalta di P.,45.78324,12.907473,5
FOSSANO,S00606,Fossano,44.550231,7.717971,1
FOSSATO DI VICO GUBBIO,S07209,Fossato di V.G.,43.283798,12.757258,10
FRAGNETO MONFORTE,S09506,Fragneto Monf.,41.247292,14.76486,15
FRAMURA,S04729,Framura,44.201903,9.555169,7
FRANCAVILLA,S12361,Francavilla,37.899892,15.132812,19
FRANCAVILLA AL MARE,S07813,Francavilla M.,42.421316,14.288062,13
FRANCAVILLA ANGITOLA F.,S11752,Francavilla A.F.,38.778074,16.215215,18
FRANCAVILLA FONTANA,S11603,Francavilla Font,40.523145,17.584714,16
FRANCIA,S12139,Francia,38.155233,13.321938,19
FRANCIOSA,S09842,Franciosa,40.679044,15.62693,17
FRASCATI,S08751,Frascati,41.806881,12.677962,12
FRASSO,S08806,Frasso,41.154417,14.534343,15
FRASSO T. DUGENTA,S09305,Frasso Dugenta,41.137244,14.459459,15
FRATTA,S02374,Fratta,45.038673,11.642598,5
FRATTAMAGGIORE,S09008,Frattamaggiore,40.940018,14.263676,15
FRATTAROLO,S11053,Frattarolo,41.58364,15.861727,16
FRATTE,S09522,Fratte,40.705637,14.778362,15
FRATTE CENTRO,S02524,Fratte Centro,45.585849,11.906637,5
FRATTE VILLA COMUNALE,S09524,Fratte-Villa Com,40.697895,14.779252,15
FROSINONE,S08662,Frosinone,41.625333,13.328728,12
FRUGAROLO BOSCOMARENGO,S04200,Frugarolo B.,44.841687,8.682724,1
FUNO CENTERGROSS,S05726,Funo Centergross,44.593646,11.370672,8
FURCI,S12313,Furci,37.961714,15.380022,19
FUSCALDO,S11738,Fuscaldo,39.409692,16.011475,18
GUALTIERI,S05961,Gualtieri,44.903244,10.633744,8
GUARDA,S05998,Guarda,44.969373,11.800525,8
GUASTALLA,S05960,Guastall,44.918653,10.657245,8
GENOVA P.PRINCIPE,S04700,Genova P.Princ.,44.417784,8.9207,7
GABELLA GRANDE,S11871,Gabella Grande,39.146447,17.10991,18
GAGGI,S12358,Gaggi,37.858532,15.225095,19
GAGGIANO,S01063,Gaggiano,45.408827,9.031117,3
GAGGIO,S02671,Gaggio,45.551893,12.326027,5
GAGLIOLE,S07311,Gagliole,43.220298,13.07522,11
GAIBANELLA,S05800,Gaibanella,44.778116,11.671325,8
GAIFANA,S07212,Gaifana,43.181837,12.784148,10
GALATI,S12305,Galati,38.104511,15.505313,19
GALDO,S09900,Galdo,40.569272,15.355627,15
GALLARATE,S01030,Gallarate,45.659828,8.798243,3
GALLESE BASSANELLO,S08113,Gallese Bassanel,42.3798,12.371998,12
GALLESE IN TEVERINA,S08210,Gallese,42.380901,12.439732,12
GALLIERA,S05721,Galliera,44.737738,11.441551,8
GALLIERA VENETA TOMBOLO,S02541,Galliera Ven.Tom,45.652901,11.828066,5
GAMALERO,S00861,Gamalero,44.817476,8.543427,1
GAMBERALE-S.ANGELO P.,S07997,Gamberale-S.A.,41.887442,14.249089,13
GAMBETTOLA,S05067,Gambettola,44.116718,12.327555,8
GAMBOLO`REMONDO`,S00274,Gambolo'Remondo',45.23587,8.79757,3
GARBAGNA,S00030,Garbagna,45.385552,8.66627,1
GARESSIO,S00924,Garessio,44.199088,8.015214,1
GARGAZZONE ,S02218,Gargazzone / Garganzon,46.575016,11.199401,4
GARLASCO,S00276,Garlasco,45.198948,8.926829,3
GATTEO A MARE,S05816,Gatteo a Mare,44.170691,12.432057,8
GATTINARA,S00052,Gattinara,45.611523,8.364288,1
GAVIGNANO,S08241,Gavignano,42.27304,12.608799,12
GAVORRANO,S06036,Gavorrano,42.947959,10.9338,9
GAZZADA SCHIANNO MORAZZONE,S01207,Gazzada Schian.M,45.77862,8.824815,3
GAZZO DI BIGARELLO,S02381,Gazzo di Bigarel,45.176648,10.894005,3
GAZZO PIEVE S. GIACOMO,S01917,Gazzo Pieve S.G.,45.137151,10.189922,3
GELA,S12407,Gela,37.07283,14.259461,19
GEMELLI,S08326,Gemelli,41.927813,12.427797,12
GEMONA DEL FRIULI,S03019,Gemona del Fr.,46.274243,13.127978,6
GENGA S.VITTORE TERME,S07206,Genga S.V.T.,43.403011,12.977163,11
GENOVA ACQUASANTA,S04107,GE Acquasanta,44.458757,8.773197,7
GENOVA BOLZANETO,S04218,Genova Bolzaneto,44.459208,8.900193,7
GENOVA BORZOLI,S04109,Genova Borzoli,44.434704,8.866648,7
GENOVA BRIGNOLE,S04702,Genova Brignole,44.407213,8.947553,7
GENOVA CORNIGLIANO,S04538,GE Cornigliano,44.414752,8.865035,7
GENOVA COSTA DI SESTRI PONENTE,S04110,GE Costa Sestri,44.433535,8.84553,7
GENOVA GRANARA,S04108,Genova Granara,44.442055,8.823453,7
GENOVA MARITTIMA S. LIMBANIA,S04603,GE M. S.Limbania,44.412808,8.911098,7
GENOVA NERVI,S04707,Genova Nervi,44.381271,9.039895,7
GENOVA P. PRINCIPE SOTTERRANEA,S04701,Genova P.P.Sott.,44.414803,8.918041,7
GENOVA PEGLI,S04536,Genova Pegli,44.426236,8.816767,7
GENOVA PONTEDECIMO,S04217,GE Pontedecimo,44.494189,8.905642,7
GENOVA PRA,S04535,Genova Pra,44.426874,8.785356,7
GENOVA QUARTO DEI MILLE,S04704,Genova Quarto,44.388607,8.99597,7
GENOVA QUINTO AL MARE,S04705,Genova Quinto,44.385184,9.020514,7
GENOVA RIVAROLO,S04219,Genova Rivarolo,44.435955,8.89106,7
GENOVA S.BIAGIO,S04222,Genova S.Biagio,44.484399,8.900854,7
GENOVA SAMPIERDARENA,S04220,GE Sampierdarena,44.413102,8.887271,7
GENOVA SAN QUIRICO,S04213,GE S.Quirico,44.483002,8.900603,7
GENOVA SESTRI PONENTE,S04537,Genova Sestri P.,44.422374,8.847707,7
GENOVA STURLA,S04703,Genova Sturla,44.397977,8.981466,7
GENOVA VESIMA,S04540,Genova Vesima,44.416176,8.714099,7
GENOVA VIA DI FRANCIA,S04223,GE Via Francia,44.411126,8.90192,7
GENOVA VOLTRI,S04534,Genova Voltri,44.428467,8.758163,7
GENOVA VOLTRI MARE,S04541,GE Voltri Mare,44.428518,8.757337,7
GERMAGNANO,S00096,Germagnano,45.37268,7.847561,1
GHEDI,S01841,Ghedi,45.409439,10.280506,3
GHEMME,S00110,Ghemme,45.595882,8.417135,1
GHISLARENGO,S00974,Ghislarengo,45.526006,8.379453,1
GHIVIZZANO - COREGLIA,S06306,Ghivizzano-Cor.,44.027583,10.510183,9
GIACHERY,S12138,Giachery,38.138135,13.355856,19
GIAMPILIERI,S12308,Giampilieri,38.080121,15.493863,19
GIAROLE,S00316,Giarole,45.056125,8.5609,1
GIARRE RIPOSTO,S12324,Giarre Riposto,37.730346,15.193386,19
GIAVE,S12866,Giave,40.455875,8.729388,20
GINOSA,S11462,Ginosa,40.429201,16.890968,16
GIOIA DEL COLLE,S11505,Gioia del Colle,40.796983,16.916569,16
GIOIA TAURO,S11766,Gioia Tauro,38.423436,15.897516,18
GIOIOSA JONICA,S11848,Gioiosa Jonica,38.300812,16.332501,18
GIOJOSA MAREA,S12033,Giojosa Marea,38.175149,14.894794,19
GIOVI,S06084,Giovi,43.53094,11.875575,9
GIOVINAZZO,S11115,Giovinazzo,41.180968,16.669346,16
GIUBIASCO,S00850,Giubiasco,46.173976,9.004171,
GIUGLIANO QUALIANO,S09100,Giugliano Qual.,40.935018,14.10378,15
GIULIANOVA,S07802,Giulianova,42.751673,13.965743,13
GIUNCANO,S07225,Giuncano,42.647802,12.637694,10
GIUNCARICO,S06037,Giuncarico,42.915473,11.008362,9
GIZZERIA LIDO,S11748,Gizzeria Lido,38.933446,16.212563,18
GLORIE,S05809,Glorie,44.483341,12.075736,8
GODO,S05904,Godo,44.389322,12.071256,8
GOLE DI ALCANTARA,S12366,Gole Alcantara,37.878403,15.176039,19
GOLFO ARANCI,S12852,Golfo Aranci,40.997261,9.62471,20
GONZAGA-REGGIOLO,S02344,Gonzaga-Reggiolo,44.939239,10.815533,3
GORGO AL MONTICANO,S02766,Gorgo Montic.,45.784444,12.553737,5
GORIANO SICOLI,S08535,Goriano Sicoli,42.082698,13.78286,13
GORIZIA CENTRALE,S03304,Gorizia Centrale,45.933047,13.60684,6
GOZZANO,S00015,Gozzano,45.741039,8.438726,1
GRAGNANO,S09758,Gragnano,40.688964,14.520445,15
GRAGNOLA,S06224,Gragnola,44.191069,10.109245,9
GRAMMICHELE,S12272,Grammichele,37.209336,14.641256,19
GRANAIOLO,S06801,Granaiolo,43.652244,10.945223,9
GRANAROLO,S05955,Granarolo,44.357356,11.937441,8
GRANITI,S12359,Graniti,37.869467,15.208633,19
GRASSANO,S11456,Grassano,40.593317,16.241049,17
GRAVELLONA TOCE,S00007,Gravellona Toce,45.934051,8.428346,1
GRAVINA IN PUGLIA,S11306,Gravina in P.,40.825216,16.418926,16
GRECCIO,S07403,Greccio,42.462872,12.777009,12
GRICIGNANO,S09300,Gricignano,40.998742,14.241657,15
GRIGNANO,S03315,Grignano,45.713308,13.710255,6
GRIGNASCO,S00106,Grignasco,45.683288,8.332913,1
GRIGNO,S02317,Grigno,46.015059,11.624984,4
GRISIGNANO DI ZOCCO,S02579,Grisignano Z.,45.48638,11.710762,5
GRISOLIA S.MARIA,S11729,Grisolia,39.739731,15.821072,18
GRIZZANA,S05133,Grizzana,44.258292,11.181194,8
GROANE,S01927,Groane,45.627105,9.100254,3
GROPELLO CAIROLI,S00277,Gropello Cairoli,45.173101,8.991626,3
GROSSETO,S06039,Grosseto,42.76728,11.1065,9
GROTTAGLIE,S11602,Grottaglie,40.528989,17.424503,16
GROTTAMMARE,S07512,Grottammare,42.99381,13.870265,11
GROTTE,S12372,Grotte,37.409848,13.702717,19
GROTTE S.STEFANO,S08301,Grotte S.Stefano,42.51512,12.169372,12
GRUGLIASCO,S00059,Gruglia.,45.068199,7.599914,1
GRUMELLO DEL MONTE,S01537,Grumello D.M.,45.634102,9.862767,3
GRUMO APPULA,S11502,Grumo Appula,41.01199,16.718777,16
GUADAGNA,S12144,Guadagna,38.09851,13.371483,19
GUALDO TADINO,S07211,Gualdo T.,43.233475,12.7672,10
GUARDAVALLE,S11843,Guardavalle,38.480266,16.578923,18
GUARDIA MANGANO SANTA VENERINA,S12327,Guardia Mangano,37.661812,15.169447,19
GUARDIA PIEMONTESE TERME,S11737,Guardia P.T.,39.464259,15.979237,18
GUARDIAREGIA,S09456,Guardiaregia,41.457455,14.553753,14
GUIDONIA-MONTECELIO-S.ANGELO,S08506,Guidonia-M.-S.A.,41.993405,12.725681,12
HONE BARD,S00147,Hone Bard,45.613918,7.741345,2
IGEA MARINA,S05818,Igea Marina,44.131972,12.481636,8
IGLESIAS,S12950,Iglesias,39.310563,8.539786,20
IL CIONFO,S06958,Il Cionfo,43.79649,11.273946,9
IL CIONFO BIN. LE CURE,S06957,Cionfo Binlecure,43.786182,11.268501,9
IL CIONFO BIN. SALVIATI,S06951,Cionfo Bin.Salvi,43.798687,11.273076,9
IL NETO,S06424,Il Neto,43.839624,11.182656,9
IMOLA,S05054,Imola,44.359418,11.718723,8
IMPERIA,S04523,Imperia,43.896798,8.03139,7
INCISA,S06907,Incisa,43.656541,11.452728,9
INCISA SCAPACCINO,S00835,Incisa Scapacc.,44.80052,8.388468,1
INCORONATA,S11101,Incoronata,41.408174,15.650728,16
INDICATORE,S06914,Indicatore,43.480067,11.803468,9
INDUNO OLONA,S01204,Induno Olona,45.846432,8.838357,3
INVERIGO,S01093,Inverigo,45.740496,9.224904,3
IPOGEO DEGLI OTTAVI,S08330,Ipogeo d.Ottavi,41.968391,12.409026,12
ISELLE DI TRASQUERA,S01952,Iselle Trasquera,46.20711,8.207784,1
ISERNIA,S09053,Isernia,41.596946,14.235421,14
ISOLA CAPO RIZZUTO,S11825,Isola Capo Rizz.,39.043084,17.071764,18
ISOLA DEL CANTONE,S04210,Isola del Cant.,44.646589,8.957578,7
ISOLA DELLA SCALA,S05307,Isola d. Scala,45.269474,11.013312,5
ISOLA DELLE FEMMINE,S12129,Isola d.Femmine,38.194784,13.250188,19
ISOLA D`ASTI,S00347,Isola d'Asti,44.830605,8.175113,1
ISOLA LIRI,S08858,Isola Liri,41.681712,13.581088,12
ISOLETTA-S.GIOVANNI I.,S08665,Isoletta-S.G.I.,41.527873,13.547095,12
ISPICA,S12421,Ispica,36.77804,14.914315,19
ISPRA,S01121,Ispra,45.811573,8.621338,3
ISTRANA,S02539,Istrana,45.676539,12.102781,5
ITRI,S08607,Itri,41.271328,13.545549,12
IVREA,S00154,Ivrea,45.461542,7.876348,1
JENBACH,S01176,Jenbach,47.388577,11.778067,
JESI,S07202,Jesi,43.520164,13.251316,11
JOPPOLO,S11763,Joppolo,38.580318,15.897025,18
KNITTEFELD,S03612,Knittefeld,47.215258,14.837438,
LUZZARA,S05958,Luzzara,44.959356,10.696986,8
LAMEZIA TERME AEROPORTO,S17014,LAMEZIA T. A.,38.907134,16.246054,18
LA BRIGUE,S00634,La Brigue,44.062675,7.606085,
LA FIORA,S08808,La Fiora,41.331487,13.200365,12
LA GIUSTINIANA,S08321,La Giustiniana,41.985243,12.403457,12
LA RUSTICA UIR,S08514,La Rustica UIR,41.912488,12.622391,12
LA SALLE,S00132,La Salle,45.744637,7.061987,2
LA SPEZIA CENTRALE,S06000,La Spezia C.le,44.11141,9.813906,7
LA SPEZIA MIGLIARINA,S06004,La Spezia Migl.,44.123391,9.84028,7
LA STORTA,S08320,La Storta,42.001748,12.381254,12
LABICO,S08654,Labico,41.783303,12.890166,12
LABRO MOGGIO,S07427,Labro Moggio,42.506131,12.746224,12
LACES,S02207,Laces,46.619692,10.85863,4
LADISPOLI-CERVETERI,S08021,Ladispoli-Cervet,41.953502,12.081675,12
LAGONEGRO,S09911,Lagonegro,40.120325,15.7627,17
LAIGUEGLIA,S04514,Laigueglia,43.981283,8.158685,7
LAIVES ,S02029,Laives,46.43409,11.323533,4
LAMA,S05418,Lama,45.043466,11.913123,5
LAMA DI RENO,S05121,Lama di Reno,44.363501,11.216168,8
LAMBRINIA,S01869,Lambrinia,45.164376,9.527436,3
LAMBRUGO - LURAGO D'ERBA,S01094,Lambrugo-Lurago,45.761819,9.239265,3
LAMEZIA TERME CENTRALE,S11749,Lamezia T. C.le,38.921347,16.255577,18
LAMEZIA TERME NICASTRO,S11951,L.Terme Nicastro,38.966779,16.320043,18
LAMEZIA TERME SAMBIASE,S11950,L.Terme Sambiase,38.959927,16.284962,18
LANA-POSTAL ,S02219,Lana-Postal,46.608079,11.182252,4
LANCENIGO,S02710,Lancenigo,45.710087,12.265663,5
LANCIANO,S07986,Lanciano,42.229614,14.402662,13
LANUVIO,S08733,Lanuvio,41.672211,12.690885,12
LANZARA FIMIANI,S09707,Lanzara Fimiani,40.769685,14.68115,15
LANZO,S00095,Lanzo,45.273231,7.481279,1
LAPIO,S09604,Lapio,45.473649,11.536252,5
LARINO,S09466,Larino,41.80015,14.918226,14
LASA,S02204,Lasa,46.618617,10.694828,4
LASCARI,S12018,Lascari,38.011672,13.928633,19
LASCARI,S12070,Lascari,38.010111,13.925376,19
LASTRA A SIGNA,S06001,Lastra a Signa,43.769671,11.103178,9
LATERINA,S06912,Laterina,43.496458,11.660573,9
LATIANO,S11606,Latiano,40.558074,17.717629,16
LATINA,S08608,Latina,41.538372,12.945888,12
LATISANA LIGNANO B.,S03202,Latisana L.B.,45.777733,13.001101,6
LAURIANO,S00421,Lauriano,45.160761,7.998531,1
LAVAGNA,S04723,Lavagna,44.305677,9.346371,7
LAVENO MOMBELLO,S01118,Laveno Mombello,45.903272,8.624583,3
LAVEZZOLA,S05806,Lavezzola,44.559591,11.880154,8
LAVINO,S05041,Lavino,44.538306,11.232799,8
LAVIS,S02037,Lavis,46.148306,11.095993,4
LAVORATE,S09708,Lavorate,40.78733,14.649875,15
LE PIAGGE,S06516,Le Piagge,43.789684,11.171665,9
LECCE,S11145,Lecce,40.34566,18.165724,16
LECCO,S01520,Lecco,45.856471,9.393638,3
LECCO MAGGIANICO,S01522,Lecco Maggianico,45.831179,9.411691,3
LEGGIUNO MONVALLE,S01120,Leggiuno Monval.,45.867349,8.629476,3
LEGNAGO,S02366,Legnago,45.189034,11.304724,5
LEGNANO,S01033,Legnano,45.593653,8.910638,3
LENDINARA,S02373,Lendinara,45.081816,11.591667,5
LENTINI,S12341,Lentini,37.300916,14.99758,19
LENTINI DIRAMAZIONE,S12340,Lentini diramaz.,37.340009,14.98141,19
LEONESSA,S11219,Leonessa,41.062304,15.595094,17
LEONFORTE-PIRATO,S12239,Leonforte-Pirato,37.606305,14.376063,19
LERCARA BASSA,S12205,Lercara Bassa,37.737639,13.633053,19
LERINO,S02578,Lerino,45.518725,11.63567,5
LESA,S01018,Lesa,45.833042,8.566471,1
LESEGNO,S00954,Lesegno,44.385891,7.94266,1
LESMO,S01501,Lesmo,45.644745,9.309318,3
LETOJANNI,S12316,Letojanni,37.877581,15.303128,19
LEVADA,S02568,Levada,45.850158,12.006657,5
LEVANTO,S04731,Levanto,44.174167,9.616018,7
LEVATA,S02019,Levata,45.123339,10.760863,3
LEVICO,S02309,Levico,46.005729,11.30493,4
LICATA,S12400,Licata,37.106024,13.938114,19
LIDO DI CLASSE-LIDO DI SAVIO,S05813,Lido Clas./Savio,44.314546,12.292722,8
LIDO DI LAVINIO,S08708,Lido di Lavinio,41.500599,12.625926,12
LIERNA,S01413,Lierna,45.960973,9.303071,3
LIMONE,S00617,Limone,44.203799,7.577912,1
LIONI,S09616,Lioni,40.874869,15.186324,15
LIONI VALLE DELLE VITI,S09628,L.Valle d.Viti,40.887025,15.215936,15
LISIERA,S02530,Lisiera,45.578581,11.610695,5
LISON,S02663,Lison,45.751947,12.759416,5
LISSONE-MUGGIO`,S01321,Lissone-Muggio',45.60592,9.235368,3
LIVORNO CENTRALE,S06725,Livorno C.le,43.55406,10.336593,9
LIVORNO FERRARIS,S00237,Livorno Ferraris,45.283402,8.073493,1
LOANO,S04519,Loano,44.122429,8.254523,7
LOCATE TRIULZI,S01801,Locate Triulzi,45.35973,9.221398,3
LOCRI,S11851,Locri,38.233154,16.264787,18
LODI,S01825,Lodi,45.308966,9.497585,3
LOLLI,S12143,Lolli,38.127336,13.346223,19
LOMELLO,S00405,Lomello,45.117276,8.799121,3
LONATO,S02083,Lonato,45.457204,10.486714,3
LONGARONE ZOLDO,S02556,Longarone Zoldo,46.267466,12.301953,5
LONGOBARDI,S11742,Longobardi,39.211493,16.061261,18
LONIGO,S02441,Lonigo,45.413269,11.345016,5
LOREO,S05423,Loreo,45.059476,12.191569,5
LORETO,S07503,Loreto,43.448376,13.620455,11
LUCCA,S06404,Lucca,43.837186,10.506069,9
LUCIGNANO - MARCIANO - POZZO,S06069,Lucignano-Mar.-P,43.288554,11.772402,9
LUGO,S05951,Lugo,44.414106,11.914723,8
LUINO,S01113,Luino,45.996643,8.737464,3
LUMIGNACCO,S03125,Lumignacco,45.999177,13.250841,6
LUNGAVILLA,S01806,Lungavilla,45.049837,9.068968,3
LUNGHEZZA,S08503,Lunghezza,41.923253,12.667212,12
LUNI,S06003,Luni,44.074927,10.016185,7
LUOGOSANO,S09606,Luogosano,40.980381,14.994305,15
LUSERNA S. GIOVANNI,S00523,Luserna S.Giov.,44.815842,7.246902,1
L`AQUILA,S07414,L'Aquila,42.351055,13.384959,13
MEZZOLARA,S05997,Mezzol.,44.587314,11.568343,8
MODENA PIAZZA MANZONI,S05188,MOD.PM,44.634791,10.931779,8
MOLINELLA,S05018,Molinel.,44.627293,11.668542,8
MUFFA,S05974,Muffa,44.510317,11.109837,8
MILANO CENTRALE,S01700,Milano Centrale,45.486347,9.204528,3
MACCAGNO,S13653,Maccagno,46.043392,8.738005,3
MACCARESE,S08020,Maccarese,41.879372,12.23695,12
MACERATA,S07307,Macerata,43.293094,13.455172,11
MACERATA FONTESCODELLA,S07313,Macerata Fontesc,43.291569,13.44048,11
MACERATA UNIVERSITA',S07314,Macerata Univers,43.29353,13.454855,11
MACHERIO SOVICO,S01500,Macherio Sovico,45.642485,9.266895,3
MACHERIO-CANONICA,S01484,Macherio-C.,45.645533,9.286736,3
MACOMER,S12869,Macomer,40.267899,8.772279,20
MADDALENE,S00607,Maddalene,44.518734,7.648022,1
MADDALONI INFERIORE,S09212,Maddaloni Inf.,41.035954,14.380504,15
MADDALONI SUPERIORE,S09303,Maddaloni Super.,41.048567,14.396055,15
MADIGNANO,S01610,Madignano,45.34383,9.730179,3
MADONNA DEL PIANO,S08108,Madonna del Pian,42.259963,12.166357,12
MADONNA DEL PILONE,S00820,Madonna del P.,44.695347,7.747639,1
MADONNA DELLA SCALA,S00501,Madonna d. Scala,44.993686,7.780994,1
MADONNA DELLE GRAZIE,S09773,Madonna d.Grazie,44.519555,7.962128,1
MADONNA DI CAMPAGNA,S00083,Madonna di Camp.,45.120178,7.665229,1
MADONNA DI CASTRO,S12853,Madonna di Castr,40.672018,9.046014,20
MAERNE DI MARTELLAGO,S02512,Maerne di Mart.,45.514799,12.150629,5
MAGENTA,S01040,Magenta,45.468204,8.880633,3
MAGIONE,S07002,Magione,43.137356,12.202238,10
MAGLIANA,S08404,Magliana,41.834235,12.431017,12
MAGLIANO CRAVA MOROZZO,S00951,Magliano C.M.,44.445259,7.777852,1
MAGNA GRECIA,S11042,Magna Grecia,40.464916,17.268778,16
MAGNACAVALLO,S05159,Magnacavallo,45.002495,11.182704,3
MAGRE`- CORTACCIA,S02033,Magre'-Cortaccia,46.287976,11.232646,4
MAJANO,S03051,Majano,46.219372,13.066308,6
MALEO,S01910,Maleo,45.170118,9.755201,3
MALLES VENOSTA,S02200,Malles Venosta,46.684542,10.546445,4
MALPENSA AEROPORTO T1,S01139,MALP AT1,45.627242,8.711081,3
MALPENSA AEROPORTO T2,S01146,MALP AT2,45.627161,8.711288,3
MALTIGNANO DEL TRONTO,S07555,Maltignano T.,42.844918,13.664738,11
MANAROLA,S04735,Manarola,44.109904,9.727401,
MANDATORICCIO CAMPANA,S11817,Mandatoriccio C.,39.525442,16.893125,18
MANDELA-SAMBUCI,S08512,Mandela-Sambuci,42.016212,12.921976,12
MANDELLO DEL LARIO,S01415,Mandello del L.,45.915208,9.322061,3
MANDRAS,S12898,Mandras,40.787571,9.573964,20
MANERBIO,S01902,Manerbio,45.357212,10.132348,3
MANFREDONIA,S11054,Manfredonia,41.623046,15.908142,16
MANIAGO,S03084,Maniago,46.170057,12.714527,6
MANOPPELLO,S07710,Manoppello,42.305848,14.061057,13
MANTA,S00700,Manta,44.620887,7.494166,1
MANTOVA,S02336,Mantova,45.158746,10.783165,3
MANTOVA FRASSINE,S02380,Mantova Frassine,45.150491,10.831007,3
MANZANO,S03030,Manzano,45.98811,13.375016,6
MANZIANA-CANALE MONTERANO,S08314,Manziana,42.128246,12.134934,12
MARANO,S02142,Marano,45.706864,11.4246,5
MARANO TICINO,S00983,Marano Ticino,45.629485,8.626172,1
MARATEA,S11723,Maratea,39.995028,15.70975,17
MARAUSA,S12104,Marausa,37.92647,12.504113,19
MARCARIA,S01921,Marcaria,45.124518,10.533651,3
MARCELLINA VERBICARO ORSOMARSO,S11728,Marcellina V.O.,39.766974,15.822665,18
MARCELLINA-PALOMBARA,S08507,Marcellina-Palom,41.999609,12.79134,12
MARCELLINARA,S11953,Marcellinara,38.923103,16.466939,18
MARCIANISE,S09301,Marcianise,41.03596,14.287658,15
MARCONI,S11121,Marconi,41.11823,16.888904,16
MARCONIA,S11800,Marconia,40.316896,16.752317,17
MARECHIARO,S08716,Marechiaro,41.470762,12.6123,12
MARGARITA,S00902,Margarita,44.380082,7.685738,1
MARGHERITA DI SAV./OFANTINO,S11107,Margherita S.Of.,41.343,16.136024,16
MARIANO COMENSE,S01089,Mariano Comense,45.693622,9.18147,3
MARIANOPOLI,S12234,Marianopoli,37.623011,13.898901,19
MARIGLIANO,S09750,Marigliano,40.923733,14.460435,15
MARINA DI CERVETERI,S08022,Marina di Cervet,41.979133,12.047924,12
MARINA DI MARATEA,S11724,Mar.di Maratea,39.959512,15.735953,17
MARINA DI SAN LORENZO,S11862,M.d.San Lorenzo,37.919844,15.826365,18
MARINELLA,S12854,Marinella,40.999129,9.55362,20
MARINO,S08701,Marino,41.768961,12.655994,12
MARINO DEL TRONTO FOLIGNANO,S07556,Marino del Tr.,42.844346,13.632995,11
MARLENGO,S02214,Marlengo,46.664558,11.138577,4
MARMORE,S07401,Marmore,42.547499,12.715224,10
MAROTTA MONDOLFO,S07107,Marotta Mondolfo,43.769748,13.137273,11
MARRADI,S06610,Marradi,44.07973,11.619174,9
MARRUBIU TERRALBA ARBOREA,S12879,Marrubiu Terr.Ar,39.75293,8.641144,20
MARSALA,S12107,Marsala,37.793514,12.443174,19
MARTINSICURO,S07515,MARTINSICURO,42.88642,13.904253,13
MARZABOTTO,S05105,Marzabotto,44.341237,11.207351,8
MARZAMEMI,S12444,Marzamemi,36.7309,15.111238,19
MARZOCCA,S07109,Marzocca,43.677362,13.287922,11
MASCALI,S12323,Mascali,37.765403,15.1942,19
MASCHIO,S04811,Maschio,44.326605,8.436686,7
MASI TORELLO,S05171,Masi Torello,44.792962,11.797423,8
MASSA CENTRO,S06009,Massa Centro,44.023741,10.136041,9
MASSAFISCAGLIA,S05179,Massafiscaglia,44.804225,12.013357,8
MASSAFRA,S11510,Massafra,40.582968,17.107899,16
MASSALOMBARDA,S05952,Massalombarda,44.448948,11.828068,8
MASSAROSA BOZZANO,S06350,Massarosa Bozzan,43.855652,10.352022,9
MATELICA,S07301,Matelica,43.25394,13.01509,11
MATHI,S00093,Mathi,45.255638,7.540833,1
MATRICE MONTAGANO,S09461,Matrice Montag.,41.621321,14.699561,14
MATTARELLO,S02040,Mattarello,46.008007,11.131333,4
MAZARA DEL VALLO,S12110,Mazara del Vallo,37.652448,12.594565,19
MEDA,S01087,Meda,45.662297,9.158898,3
MEDE,S00406,Mede,45.095009,8.742594,3
MEDESANO,S06102,Medesano,44.749265,10.140335,8
MEDUNO,S03082,Meduno,46.200678,12.80282,6
MEINA,S01019,Meina,45.794389,8.535452,1
MELANO MARISCHIO,S07065,Melano Marischio,43.345046,12.858866,11
MELE,S04106,Mele,44.472797,8.733953,7
MELEGNANO,S01822,Melegnano,45.356321,9.319271,3
MELFI,S11206,Melfi,40.989871,15.646895,17
MELITO DI PORTO SALVO,S11863,Melito P.S.,37.916732,15.780816,18
MELZO,S01705,Melzo,45.502191,9.420653,3
MELZO SCALO,S02215,Melzo Scalo,45.510413,9.437647,3
MEMMENANO,S06075,Memmenano,43.711622,11.786017,9
MEOLO,S02668,Meolo,45.61319,12.453969,5
MERANA,S00875,Merana,44.519368,8.298327,1
MERANO,S02216,Merano,46.673066,11.148978,4
MERANO MAIA BASSA,S02217,Merano Maia Bass,46.656202,11.147931,4
MERCATELLO,S09837,Mercatello,40.606491,15.38979,15
MERCATO SAN SEVERINO,S09706,Mercato S.Sever.,40.783095,14.759749,15
MERCENASCO,S00156,Mercenasco,45.353436,7.886405,1
MERGOZZO,S01012,Mergozzo,45.961303,8.440881,1
MERONE,S01454,Merone,45.781374,9.243772,3
MESAGNE,S11607,Mesagne,40.563203,17.802082,16
MESSINA CENTRALE,S12301,Messina Cent.,38.184975,15.561278,19
MESSINA MARITTIMA,S12300,Messina Maritt.,38.14988,15.534997,19
MESTRINO,S02580,Mestrino,45.457878,11.773859,5
METAPONTO,S11461,Metaponto,40.368496,16.815176,17
MEZZANI RONDANI,S01851,Mezzani Rondani,44.966764,10.398818,8
MEZZANO,S05810,Mezzano,44.463,12.098501,8
MEZZOCORONA,S02035,Mezzocorona,46.207258,11.128595,4
MI P.GAR.SOTT.,S01647,MI P.Gar.Sott.,45.484228,9.185122,3
MI.P.GENOVA,S01631,MI P.Genova,45.453379,9.169303,3
MIGLIARINO,S05176,Migliarino,44.769341,11.938347,8
MIGLIARO,S05178,Migliaro,44.79532,11.975107,8
MIGNANEGO,S04212,Mignanego,44.539031,8.929951,7
MIGNANO DI MONTE LUNGO,S09201,Mignano Mont.,41.407585,13.986672,15
MILANO AFFORI,S01078,Milano Affori,45.521334,9.167446,3
MILANO BOVISA FNM,S01642,MI BOVISA FNM,45.502993,9.159235,3
MILANO BRUZZANO,S01079,Milano Bruzzano,45.533867,9.173438,3
MILANO CERTOSA,S01640,Milano Certosa,45.507019,9.133863,3
MILANO DATEO,S01650,Milano Dateo,45.462341,9.209277,3
MILANO FARINI,S01644,Milano Farini,45.494847,9.176342,3
MILANO FORLANINI,S01492,Milano Forlanini,45.464806,9.238694,3
MILANO GRECO PIRELLI,S01326,MI Greco Pirelli,45.51272,9.214456,3
MILANO LAMBRATE,S01701,Milano Lambrate,45.484933,9.237333,3
MILANO LANCETTI,S01643,MI Lancetti,45.492632,9.175832,3
MILANO NORD CADORNA,S01066,MILANO N.CADORNA,45.469432,9.180467,3
MILANO NORD QUARTO OGGIARO ,S01069,Mi.N.Quar.Oggiro,45.519315,9.145914,3
MILANO PORTA GARIBALDI,S01645,MI P. Garibaldi,45.484917,9.187683,3
MILANO PORTA ROMANA,S01632,MI P.ta Romana,45.445844,9.213128,3
MILANO PORTA VITTORIA,S01633,MI P.ta Vittoria,45.459579,9.21813,3
MILANO REPUBBLICA,S01648,MI Repubblica,45.479984,9.198861,3
MILANO ROGOREDO,S01820,Milano Rogoredo,45.433866,9.2391,3
MILANO ROMOLO,S01032,Milano Romolo,45.445008,9.168933,3
MILANO S. CRISTOFORO,S01630,MI S.Cristoforo,45.442404,9.130258,3
MILANO TIBALDI,S01022,MILANO TIBALDI,45.44406,9.185446,3
MILANO VENEZIA,S01649,MI Venezia,45.471121,9.201889,3
MILANO VILLAPIZZONE,S01639,MI Villapizzone,45.50216,9.151245,3
MILAZZO,S12042,Milazzo,38.21195,15.244203,19
MILETO,S11790,Mileto,38.577082,16.060041,18
MILITELLO,S12276,Militello,37.277194,14.78317,19
MIMMOLE,S06954,Mimmole,43.858111,11.265292,9
MINEO,S12275,Mineo,37.24572,14.756907,19
MINERVINO MURGE,S11403,Minervino Murge,41.081788,16.074974,16
MINTURNO,S09150,Minturno,41.257621,13.720664,12
MINUCCIANO - PIEVE - CASOLA,S06227,Minucciano P. C.,44.194385,10.193837,9
MIRA MIRANO,S02588,Mira Mirano,45.462943,12.118789,5
MIRADOLO TERME,S01867,Miradolo Terme,45.162007,9.449952,3
MIRAMARE,S03311,Miramare,45.705101,13.720174,6
MIRANDOLA,S05311,Mirandola,44.891638,11.111689,8
MIRTO CROSIA,S11814,Mirto Crosia,39.604876,16.777366,18
MISANO ADRIATICO,S07119,Misano Adriatico,43.977493,12.697121,8
MODANE,S00201,Modane,45.193672,6.659525,
MODANE FX,S00190,Modane FX,45.191268,6.650295,
MODENA,S05032,Modena,44.654461,10.930373,8
MODICA,S12417,Modica,36.8529,14.754255,19
MODUGNO,S11516,Modugno,41.08669,16.779762,16
MODUGNO,S11500,Modugno,41.105726,16.834641,16
MODUGNO CITTA`,S11515,Modugno Citta',41.086437,16.779596,16
MOGLIANO VENETO,S02717,Mogliano Veneto,45.561964,12.23274,5
MOIANA,S01456,Moiana,45.787082,9.255607,3
MOIMACCO,S03058,Moimacco,46.088782,13.373606,6
MOJO-ALCANTARA MALVAGNA,S12363,Mojo-Alcantara M,37.896949,15.050228,19
MOLA DI BARI,S11127,Mola di Bari,41.057227,17.080919,16
MOLARE,S04102,Molare,44.621975,8.609904,1
MOLFETTA,S11114,Molfetta,41.196008,16.596793,16
MOLINA CASTEL VECCHIO SUBAQUEO,S07424,Molina C.V.S.,42.143476,13.739644,13
MOLINO DEL PALLONE,S05112,Molino del Pall.,44.100128,10.961252,8
MOLTENO,S01458,Molteno,45.780939,9.301683,3
MOMBALDONE ROCCAVERANO,S00873,Monbaldone Rocc.,44.569891,8.332781,1
MOMBARUZZO,S00808,Mombaruzzo,44.76235,8.441006,1
MOMO,S00019,Momo,45.574646,8.55689,1
MONASTERACE STILO,S11844,Monasterace St.,38.437591,16.574444,18
MONASTERO PRATAVECCHI,S00721,Monastero Prat.,44.484517,7.44679,1
MONCALIERI,S00453,Moncalieri,44.998187,7.678027,1
MONCALIERI SANGONE,S00510,MONC. SANGONE,45.000393,7.667991,1
MONCALVO,S00340,Moncalvo,45.059463,8.261905,1
MONCHIERO DOGLIANI,S00735,Monchiero Dogl.,44.571815,7.917635,1
MONDOVI`,S00952,MONDOVI',44.398255,7.816339,1
MONEGLIA,S04727,Moneglia,44.242449,9.486957,7
MONFALCONE,S03310,Monfalcone,45.807683,13.542929,6
MONGARDINO,S00801,Mongardino,44.84161,8.207411,1
MONGRASSANO CERVICATI,S11905,Mongrassano,39.538462,16.222511,18
MONGUELFO VALLE DI CASIES,S02111,Monguelfo,46.752775,12.107264,4
MONOPOLI,S11129,Monopoli,40.952017,17.292455,16
MONSAMPOLO DEL T,S07023,MONSAMPOLO DEL T,42.885893,13.819665,11
MONSAMPOLO DEL TRONTO,S07553,Monsampolo,42.881488,13.803569,11
MONSELICE,S05703,Monselice,45.246116,11.74789,5
MONTAGNANA,S02392,Montagnana,45.228238,11.459873,5
MONTAGUTO PANNI,S09319,Montaguto P.,41.235362,15.235132,15
MONTALE AGLIANA,S06415,Montale Agliana,43.912924,11.008309,9
MONTALLESE,S06856,Montallese,43.064888,11.90928,9
MONTALTO DI CASTRO,S08008,Montalto di Cas.,42.334623,11.595085,12
MONTALTO DORA,S00153,Montalto Dora,45.490309,7.858986,1
MONTALTO ROSE,S11908,Montalto Rose,39.407213,16.247291,18
MONTANARO,S00160,Montanaro,45.232674,7.858331,1
MONTE AMIATA,S06818,Monte Amiata,42.8877,11.623941,9
MONTE ANTICO,S06820,Monte Antico,42.981054,11.359819,9
MONTE ARCAU,S12973,Monte Arcau,39.244501,8.543347,20
MONTE GIORDANO,S11805,Monte Giordano,40.040812,16.597907,18
MONTE MELINO,S07014,Monte Melino,43.106303,12.249698,10
MONTE S. SAVINO,S06068,Monte S. Savino,43.332061,11.731649,9
MONTE S.BIAGIO,S08605,Monte S.Biagio,41.345967,13.347037,12
MONTEBELLO,S02443,Montebello,45.45251,11.390803,5
MONTEBELLUNA,S02570,Montebelluna,45.776434,12.054,5
MONTECALVO BUONALBERGO CASALB.,S09315,Montecalvo B.C.,41.2211,14.9795,15
MONTECARLO SAN SALVATORE,S06408,Montecarlo S.Sal,43.850798,10.68537,9
MONTECAROTTO CASTELBELLINO,S07203,Montecarotto C.,43.500005,13.1481,11
MONTECATINI CENTRO,S06412,Montecatini C.,43.881216,10.77081,9
MONTECATINI TERME,S06411,Montecatini T.,43.879327,10.780588,9
MONTECHIARO DENICE,S00872,Montechiaro D.,44.600827,8.352185,1
MONTECHIARO D`ASTI,S00428,Montechiaro d'A.,44.999849,8.10982,1
MONTECORVINO,S09822,Montecorvino,40.617439,14.944628,15
MONTECOSARO,S07310,Montecosaro,43.289297,13.646378,11
MONTEFALCIONE,S09602,Montefalcione,40.951114,14.886432,15
MONTEFIASCONE,S08303,Montefiascone,42.520268,12.050448,12
MONTEFREDANE,S09529,Montefredane,40.951143,14.827771,15
MONTEGROSSO,S00803,Montegrosso,44.818465,8.239171,1
MONTEIASI,S11601,Monteiasi,40.523852,17.361457,16
MONTELLA,S09612,Montella,40.845175,15.032758,15
MONTELLO GORLAGO,S01535,Montello Gorlago,45.67017,9.808488,3
MONTELUPO CAPRAIA,S06511,Montelupo,43.733357,11.018997,9
MONTEMAGGIORE,S12203,Montemaggiore,37.859037,13.693193,19
MONTEMARANO,S09610,Montemarano,40.900728,15.039506,15
MONTEMARCIANO,S07110,Montemarciano,43.651397,13.346478,11
MONTEMILETTO,S09603,Montemiletto,40.993606,14.920685,15
MONTENERO PETACCIATO,S07825,Montenero P.,42.033286,14.851015,14
MONTEPAONE - MONTAURO,S11836,Montepaone M.,38.728548,16.541944,18
MONTEPESCALI,S06038,Montepescali,42.869518,11.068743,9
MONTEPRANDONE,S07554,Monteprandone,42.894183,13.849996,11
MONTEPULCIANO,S06855,Montepulciano,43.135353,11.856865,9
MONTEREALE VALCELLINA,S03085,Montereale Valc.,46.148009,12.658923,6
MONTERODUNI,S09057,Monteroduni,41.528345,14.156514,14
MONTERONI D`ARBIA,S06871,Monteroni d'Arb.,43.230036,11.419662,9
MONTEROSSO,S04732,Monterosso,44.145967,9.649009,7
MONTEROSSO MARCHE,S07062,Monterosso M.,43.462227,12.818339,11
MONTEROTONDO,S08215,Monterotondo,42.06409,12.595753,12
MONTESANO BUONABITACOLO,S09909,Montesano B.,40.286725,15.653794,15
MONTESANTO,S05801,Montesanto,44.732964,11.73652,8
MONTESILVANO,S07808,Montesilvano,42.515766,14.152567,13
MONTEU DA PO,S00422,Monteu da Po,45.158353,8.022925,1
MONTEVARCHI TERRANUOVA,S06910,Montevarchi T.,43.525165,11.563983,9
MONTEVERDE,S09624,Monteverde,40.967691,15.568502,17
MONTI TELTI,S12857,Monti Telti,40.829632,9.322814,20
MONTICCHIO,S09622,Monticchio,40.923923,15.539231,17
MONTICELLI D`ONGINA,S01971,Moonticelli d'O.,45.075666,9.949036,8
MONTICELLO D`ALBA,S00823,Monticello d'A.,44.703736,7.965002,1
MONTIGLIO MURISENGO,S00426,Montiglio Muris.,45.067664,8.106913,1
MONTIRONE,S01840,Montirone,45.451352,10.239482,3
MONTJOVET,S00144,Montjovet,45.704586,7.666871,2
MONTORO FORINO,S09518,Montoro Forino,40.819987,14.757381,15
MONTORO SUPERIORE,S09517,Montoro Super.,40.831616,14.80217,15
MONTORSI,S09528,Montorsi,41.080487,14.786519,15
MONTORSOLI,S06601,Montorsoli,43.881903,11.265484,9
MONZA,S01322,Monza,45.577789,9.273253,3
MONZA SOBBORGHI,S01480,Monza Sobborghi,45.582082,9.284375,3
MONZONE-M.DEI BANCHI-ISOLANO,S06225,Monzone,44.165637,10.123827,9
MONZUNO,S05132,Monzuno,44.322277,11.262082,8
MORANO SUL PO,S00177,Morano Po,45.170793,8.366168,1
MORBEGNO,S01425,Morbegno,46.136663,9.568646,3
MORCONE,S09503,Morcone,41.340445,14.677658,15
MORENGO BARIANO,S01710,Morengo Bariano,45.521639,9.703114,3
MORES ITTIREDDU,S12864,Mores Ittireddu,40.555954,8.875838,20
MORETTA,S00544,Moretta,44.765514,7.530303,1
MORGEX,S00131,Morgex,45.757055,7.033898,2
MORI,S02046,Mori,45.861216,11.002648,4
MORNAGO CIMBRO,S01144,Mornago Cimbro,45.729742,8.734193,3
MOROLO,S08660,Morolo,41.667018,13.194557,12
MORRA DE SANCTIS TEORA,S09617,Morra de S.T.,40.890563,15.239328,15
MORREA-CASTRONOVO-RENDINARA,S08813,Morrea-Cas.-Ren.,41.852289,13.489102,13
MORROVALLE MONTE S.GIUSTO,S07309,Morrovalle Msg,43.279189,13.58285,11
MORTARA,S00034,Mortara,45.252171,8.731639,3
MOSCIANO S. ANGELO,S07904,Mosciano S. Ang.,42.710309,13.908563,13
MOSSA,S03302,Mossa,45.935114,13.547281,6
MOTTA CAMASTRA,S12360,Motta Camastra,37.890651,15.163764,19
MOTTA DI LIVENZA,S02767,Motta Liv.,45.779114,12.607118,5
MOTTA S. DAMIANO,S01862,Motta S.Damiano,45.178344,9.219866,3
MOTTA SAN GIOVANNI LAZZARO,S11865,Motta SG Lazzaro,37.976978,15.659977,18
MOTTEGGIANA,S02339,Motteggiana,45.029685,10.755439,3
MOZIA-BIRGI,S12105,Mozia-Birgi,37.884956,12.499016,19
MOZZECANE,S02332,Mozzecane,45.306687,10.823657,5
MULINETTI,S04713,Mulinetti,44.362614,9.129499,7
MURATELLA,S08400,Muratella,41.826182,12.412696,12
MURLO,S06876,Murlo,43.11398,11.400394,9
MUSEI,S12953,Musei,39.28837,8.676528,20
MUSIANO-PIAN DI MACINA,S05139,Musiano,44.402423,11.344912,8
MUSSOTTO,S00824,Mussotto,44.713227,8.015194,1
MUZZANA DEL TURGNANO,S03204,Muzzana del T.,45.816817,13.132376,6
NOVELLARA,S05940,Novellara,44.845694,10.722792,8
NAPOLI CENTRALE,S09218,Napoli Centrale,40.852933,14.272908,15
NAPOLI AFRAGOLA,S09988,Napoli Afragola,40.931901,14.331986,15
NAPOLI CAMPI FLEGREI,S09103,Napoli Campi F.,40.822462,14.194649,15
NAPOLI GIANTURCO,S09110,Napoli Gianturco,40.853959,14.288213,15
NAPOLI MERGELLINA,S09105,NA Mergellina,40.831531,14.218662,15
NAPOLI MONTESANTO,S09107,NA Montesanto,40.847807,14.244022,15
NAPOLI PIAZZA GARIBALDI,S09109,NA Piazza Garib.,40.852326,14.275159,15
NAPOLI PIAZZA LEOPARDI,S09104,NA P. Leopardi,40.82397,14.199117,15
NAPOLI S.GIOV.BARRA,S09800,Napoli S.G.Barra,40.831269,14.307811,15
NAPOLI SCALO MERCI,S09010,NA Scalo Merci,41.003722,14.33999,15
NAPOLI TRACCIA,S09220,Napoli Traccia,40.858915,14.298282,15
NARNI AMELIA,S07230,Narni Amelia,42.53128,12.519592,10
NARZOLE,S00734,Narzole,44.598377,7.881597,1
NASISI,S11600,Nasisi,40.50791,17.257802,16
NATURNO,S02211,Naturno,46.645095,11.004303,4
NAVACCHIO,S06502,Navacchio,43.685941,10.486806,9
NEIVE,S00827,Neive,44.723048,8.121071,1
NEPEZZANO-PIANO D'ACCIO,S07026,Nep.-P-d'Ac.,42.68222,13.756148,13
NERA MONTORO,S07229,Nera Montoro,42.497855,12.476587,10
NETTUNO,S08710,Nettuno,41.459558,12.662123,12
NIBBIA,S00976,Nibbia,45.481363,8.557993,1
NICHELINO,S00511,Nichelino,44.99132,7.642068,1
NICORVO,S00273,Nicorvo,45.275462,8.6712,3
NICOTERA,S11764,Nicotera,38.549328,15.933749,18
NIELLA,S00739,Niella,44.415377,7.926365,1
NISCEMI,S12392,Niscemi,37.145,14.403471,19
NIZZA DI SICILIA,S12311,Nizza di Sicilia,37.996937,15.412334,19
NIZZA MONFERRATO,S00834,Nizza Monferrato,44.772905,8.361146,1
NOALE SCORZE`,S02510,Noale Scorze',45.553833,12.074888,5
NOCERA INFERIORE,S09814,Nocera Inferiore,40.745318,14.635346,15
NOCERA INFERIORE MERCATO,S09709,Nocera Mercato,40.745668,14.649129,15
NOCERA SUPERIORE,S09815,Nocera Superiore,40.742597,14.672398,15
NOCERA TIRINESE,S11746,Nocera,39.015913,16.119677,18
NOCERA UMBRA,S07213,Nocera Umbra,43.100663,12.767207,10
NOCETO,S06101,Noceto,44.809934,10.147258,8
NOGARA,S05310,Nogara,45.179937,11.070572,5
NOLA,S09700,Nola,40.923652,14.525004,15
NOLA INTERPORTO,S09699,Nola Interporto,40.968193,14.469907,15
NONE,S00513,None,44.938011,7.540068,1
NOTARESCO,S07903,Notaresco,42.706502,13.876365,13
NOTO,S12424,Noto,36.88247,15.074523,19
NOTO BAGNI,S12446,Noto Bagni,36.882647,15.074757,19
NOVA GORICA,S03303,Nova Gorica,45.95816,13.63661,
NOVA SIRI ROTONDELLA,S11803,Nova Siri Roton.,40.130311,16.644044,17
NOVARA,S00248,Novara,45.451376,8.624895,1
NOVARA FERROVIA NORD MILANO,S00023,Novara FNM,45.487968,9.204864,3
NOVARA MONTALBANO FURNARI,S12039,Novara Mont.Fur.,38.121516,15.130702,19
NOVATE MILANESE,S01070,Novate Milanese,45.533111,9.132339,3
NOVATE-MEZZOLA,S01403,Novate-Mezzola,46.216595,9.446573,3
NOVE,S02734,Nove,46.050895,12.313312,5
NOVI LIGURE,S04203,Novi Ligure,44.762521,8.787289,1
NOZZANO,S06351,Nozzano,43.829956,10.40716,9
NUCETTO,S00920,Nucetto,44.338871,8.061386,1
NUOVO SALARIO,S08231,Nuovo Salario,41.956195,12.510317,12
NUS,S00140,Nus,45.738786,7.4712,2
NUSCO,S09614,Nusco,40.872272,15.095642,15
OCCHIOBELLO,S05710,Occhiobello,44.899384,11.621197,5
ODERZO,S02765,Oderzo,45.775304,12.49293,5
OFFICINE G.R. SALINE JONICHE,S11968,O.G.R. Saline J.,37.949635,15.704493,18
OFFIDA CASTEL DI LAMA,S07551,Offida,42.862074,13.720285,11
OGGIONO,S01460,Oggiono,45.788993,9.33748,3
OLBIA,S12855,Olbia,40.924595,9.498293,20
OLBIA MARITTIMA ISOLA BIANCA,S12901,Olbia M.I.B.,40.922597,9.523706,
OLCENENGO,S00244,Olcenengo,45.34147,8.310096,1
OLCIO,S01414,Olcio,45.938011,9.313898,3
OLEGGIO,S00984,Oleggio,45.598029,8.632586,1
OLEVANO,S00036,Olevano,45.212119,8.71182,3
OLGIATA,S08333,Olgiata,42.01538,12.363864,12
OLGIATE-CALCO-BRIVIO,S01514,Olgiate-C.-B.,45.729166,9.40377,3
OLIVERI TINDARI,S12037,Oliveri Tindari,38.128346,15.056573,19
OLIVETTA SAN MICHELE,S04480,Olivetta S.M.,43.878345,7.535066,7
OLMENETA,S01905,Olmeneta,45.231099,10.03194,3
OLMI SPERCENIGO,S02760,Olmi S.,45.679467,12.338101,5
OLTEN,S01150,Olten,47.348685,7.897804,
OMEGNA,S00010,Omegna,45.87179,8.413291,1
OMEGNA CRUSINALLO,S00008,Omegna Crusin.,45.898138,8.413929,1
OMIGNANO SALENTO,S11708,Omignano,40.252688,15.134406,15
ORA,S02031,Ora,46.36092,11.296781,4
ORBETELLO,S08004,Orbetello,42.450615,11.248972,9
ORCIANO,S06022,Orciano,43.500263,10.477566,9
ORDONA,S11202,Ordona,41.315006,15.620567,16
ORIA,S11605,Oria,40.508167,17.646534,16
ORICOLA-PERETO,S08518,Oricola Pereto,42.067835,13.044214,13
ORIO LITTA,S01870,Orio Litta,45.166778,9.550592,3
ORIOLO,S08313,Oriolo,42.166825,12.138499,12
ORIS,S02203,Oris,46.626672,10.645989,4
ORISTANO,S12878,Oristano,39.902033,8.603974,20
ORMEA,S00927,Ormea,44.148419,7.910436,1
ORNAVASSO,S00006,Ornavasso,45.970296,8.415892,1
ORSA,S12121,Orsa,38.190454,13.119126,19
ORSAGO,S02704,Orsago,45.928068,12.434259,5
ORSARA DI PUGLIA,S09320,Orsara di Puglia,41.241899,15.27766,15
ORTA MIASINO,S00012,Orta Miasino,45.795865,8.421217,1
ORTANOVA,S11102,Ortanova,41.350441,15.732059,16
ORTE,S08209,Orte,42.43728,12.408986,12
ORTONA,S07815,Ortona,42.354196,14.407698,13
ORVIETO,S08203,Orvieto,42.723379,12.127412,10
OSCHIRI,S12860,Oschiri,40.713273,9.107749,20
OSIMO CASTELFIDARDO,S07502,Osimo Castelf.,43.497033,13.547263,11
OSNAGO,S01512,Osnago,45.678532,9.386995,3
OSPEDALETTO EUGANEO,S02395,Ospedaletto Eug.,45.221706,11.606553,5
OSPEDALETTO LODIGIANO,S01871,Ospedaletto Lod.,45.16933,9.575164,3
OSPEDALICCHIO,S07012,Ospedalicchio,43.082369,12.506572,10
OSPITALE DI CADORE,S02554,Ospitale di Cad.,46.325771,12.318429,5
OSPITALETTO MANTOVANO,S01922,Ospitaletto Man.,45.129748,10.604406,3
OSPITALETTO TRAVAGLIATO,S01716,Ospitaletto T.,45.546042,10.074363,3
OSTELLATO,S05175,Ostellato,44.748125,11.934822,8
OSTERIA NUOVA,S05302,Osteria Nuova,44.586613,11.236525,8
OSTIA PARMENSE,S06160,Ostia Parmense,44.520136,9.844981,8
OSTIGLIA,S05304,Ostiglia,45.072228,11.141059,3
OSTUNI,S11132,Ostuni,40.752356,17.580809,16
OTTAVIA,S08324,Ottavia,41.9604,12.410641,12
OTTAVIANO,S09751,Ottaviano,40.85256,14.493479,15
OULX CESANA CLAVIERE SESTRIERE,S00204,Oulx Ce.Cl.Ses.,45.038789,6.831432,1
OVADA,S04103,Ovada,44.630377,8.632301,1
OVADA NORD,S04007,Ovada Nord,44.646656,8.644633,1
OVIGLIO,S00840,Oviglio,44.859537,8.494998,1
OZIERI CHILIVANI,S12862,Ozieri Chilivani,40.609496,8.933744,20
OZIERI FRAIGAS,S12861,Ozieri Fraigas,40.627334,8.986497,20
OZZANO DELL'EMILIA,S05055,Ozzano Emilia,44.450797,11.487297,8
OZZANO MONFERRATO,S00337,Ozzano Monfer.,45.107581,8.372296,1
OZZANO TARO,S06152,Ozzano Taro,44.712268,10.141022,8
PIAZZOLA,S05924,Piazzola,44.644176,10.450936,8
PIEVE SALICETO,S05962,Pieve Sa,44.89966,10.596538,8
PILASTRINO,S05970,Pilastr.,44.488425,11.229703,8
PONTE RONCA,S05919,Ponte R.,44.502281,11.191393,8
PRATISSOLO,S05985,PRATISSOLO,44.608983,10.679423,8
PRATOFONTANA,S05947,Pratofont.,44.742211,10.667544,8
PALERMO CENTRALE,S12002,Palermo C.le,38.109187,13.367515,19
P.C.CANARO,S05709,P.C. Canaro,44.923012,11.675223,5
P.M. BADESSE,S06826,P.M. Badesse,43.382144,11.277136,9
P.M.TORRICCHIO,S09717,P.M. Torricchio,40.751588,14.660959,15
P.M.VAT,S03032,P.M.Vat,46.092872,13.247412,6
PABILLONIS,S12881,Pabillonis,39.610878,8.741013,20
PACE DEL MELA,S12045,Pace del Mela,38.202459,15.312676,19
PACECO,S12103,Paceco,37.991354,12.550844,19
PACHINO,S12445,Pachino,36.710144,15.094661,19
PADERNO DUGNANO,S01082,Paderno Dugnano,45.565133,9.161958,3
PADERNO ROBBIATE,S01502,Paderno Robbiate,45.678307,9.439202,3
PADIGLIONE,S08707,Padiglione,41.513518,12.629476,12
PADOVA,S02581,Padova,45.417846,11.880794,5
PADOVA CAMPO MARTE,S02650,Padova C. Marte,45.408086,11.852715,5
PADULA,S09908,Padula,40.335142,15.629921,15
PADULI,S09313,Paduli,41.146232,14.838878,15
PAESE,S02540,Paese,45.669207,12.161677,5
PAESE CASTAGNOLE,S02602,Paese Castagnole,45.691182,12.182619,5
PAESTUM,S11703,Paestum,40.421691,15.014915,15
PAGANI,S09813,Pagani,40.74654,14.616996,15
PAGANICA,S07416,Paganica,42.334751,13.464317,13
PALAGIANELLO,S11508,Palagianello,40.610906,16.975202,16
PALAGIANO CHIATONA,S11464,Palagiano Chiat.,40.516998,17.059217,16
PALAGIANO MOTTOLA,S11509,Palagiano Mott.,40.601744,17.065478,16
PALAGONIA,S12279,Palagonia,37.318146,14.892565,19
PALAZZO REALE-ORLEANS,S12130,P.Reale-Orleans,38.10878,13.353962,19
PALAZZO S.GERVASIO - MONTEMIL.,S11303,Palazzo S.G.- M.,40.93929,15.98982,17
PALAZZOLO,S01083,Palazzolo Milan.,45.587904,9.179527,3
PALAZZOLO DELLO STELLA,S03203,Palazzolo,45.803403,13.083957,6
PALAZZOLO SULL`OGLIO,S01538,PALAZZOLO S/O.,45.601486,9.896235,3
PALAZZOLO VERCELLESE,S00175,Palazzolo Verc.,45.189004,8.232787,1
PALENA,S08904,Palena,41.918401,14.105189,13
PALERMO BRANCACCIO,S12055,PA Brancaccio,38.093141,13.392508,19
PALERMO NOTARBARTOLO,S12134,PA Notarbartolo,38.132261,13.341572,19
PALESTRO,S00271,Palestro,45.307274,8.534511,3
PALIDANO,S02343,Palidano,44.972228,10.777412,3
PALIZZI,S11859,Palizzi,37.91881,15.986405,18
PALLANZENO,S00002,Pallanzeno,46.043533,8.260645,1
PALLERONE,S06220,Pallerone,44.204232,10.005173,9
PALMA S.GENNARO,S09701,Palma S.Gennaro,40.864149,14.540472,15
PALMANOVA,S03122,Palmanova,45.906862,13.296461,6
PALMI,S11769,Palmi,38.364914,15.84438,18
PALO LAZIALE,S08018,Palo Laziale,41.939327,12.102739,12
PALOMBINA,S07112,Palombina,43.61701,13.429721,11
PANICAGLIA,S06605,Panicaglia,43.978449,11.407511,9
PANTANELLA,S08699,Pantanella,41.779518,12.635327,12
PANTIERE DI CASTELBELLINO,S07234,Pantiere di C.,43.500941,13.183116,11
PAOLA,S11739,Paola,39.359442,16.033093,18
PARABIAGO,S01035,Parabiago,45.552441,8.946319,3
PARATICO SARNICO,S01620,Paratico Sarnico,45.662478,9.961417,3
PARCO LEONARDO,S08412,Parco Leonardo,41.79932,12.29543,12
PARCO PRENESTINO,S08495,Parco Prenestino,41.897556,12.546457,12
PARCO PRENESTINO BIN. ESTERNI,S08498,P.Pr.Es.,41.900129,12.545547,12
PARGHELIA,S11759,Parghelia,38.683341,15.925042,18
PARMA,S05014,Parma,44.810203,10.32837,8
PARONA LOMELLINA,S01060,Parona Lomellina,45.280107,8.780315,3
PARTINICO,S12124,Partinico,38.05857,13.108956,19
PASSIGNANO SUL TRASIMENO,S07001,Passignano T.,43.188324,12.133128,10
PASTENA,S09836,Pastena,40.665054,14.800482,15
PATERNOPOLI,S09607,Paternopoli,40.972903,15.009932,15
PATTI-SAN PIERO PATTI,S12036,Patti-San Piero,38.146905,14.975331,19
PAULILATINO,S12874,Paulilatino,40.077373,8.775812,20
PAVIA,S01860,Pavia,45.188843,9.144674,3
PAVIA PORTA GARIBALDI,S01861,Pavia P.Garib.,45.183996,9.167331,3
PAVONA,S08731,Pavona,41.723897,12.61116,12
PEDASO,S07510,Pedaso,43.094694,13.844906,11
PEDEROBBA CAVASO POSSAGNO,S02567,Pederobba Cav.P.,45.877299,11.965222,5
PEGOGNAGA,S05154,Pegognaga,45.000463,10.854361,3
PELLEZZANO,S09521,Pellezzano,40.719928,14.777354,15
PENANGO,S00341,Penango,45.032254,8.235138,1
PERAROLO DI CADORE,S02553,Perarolo di Cad.,46.386277,12.352493,5
PERCA,S02060,Perca,46.790492,11.978523,4
PERCIANTI ARIANELLO,S09627,Percianti A.,40.972206,14.912977,15
PERGINE,S02305,Pergine,46.062482,11.232637,4
PERGOLA,S07060,Pergola,43.549653,12.832973,11
PERI,S02052,Peri,45.658402,10.900314,5
PERTENGO,S00311,Pertengo,45.233305,8.426739,1
PERTOSA,S09921,Pertosa,40.545274,15.44896,15
PERUGIA,S07004,Perugia,43.103808,12.375567,10
PERUGIA PONTE S.GIOVANNI,S07005,Perugia P.S.G.,43.091801,12.438239,10
PERUGIA SILVESTRINI,S07013,PG Silvestrini,43.081301,12.351444,10
PERUGIA UNIVERSITA',S07006,PG Université‘?,43.117193,12.356689,10
PESARO,S07104,Pesaro,43.906014,12.904848,11
PESCANTINA,S02057,Pescantina,45.484108,10.869125,5
PESCARA,S07810,Pescara,42.467789,14.205066,13
PESCARA PORTA NUOVA,S07811,Pescara P.N.,42.458072,14.211663,13
PESCARA S. MARCO,S07017,Pescara S. Marco,42.44613,14.208981,13
PESCHIERA DEL GARDA,S02088,Peschiera Garda,45.438502,10.702509,5
PESCIA,S06409,Pescia,43.886811,10.686074,9
PESCINA,S08532,Pescina,42.037564,13.668981,13
PESCOCANALE,S08811,Pescocanale,41.9589,13.391624,13
PESCOLANCIANO-CHIAUCI,S08915,Pescolanciano-C.,41.678996,14.341588,14
PESCOSANNITA FRAGNETO L`ABATE,S09507,Pescosannita F.,41.236154,14.788527,15
PESSIONE,S00457,Pessione,44.965132,7.841321,1
PETINA,S09901,Petina,40.560347,15.389298,15
PETROSINO STRASATTI,S12109,Petrosino Stras.,37.725466,12.509434,19
PETTENASCO,S00011,Pettenasco,45.820498,8.406802,1
PETTORANO SUL GIZIO,S08901,Pettorano sul G.,41.974557,13.965036,13
PIACENZA,S05000,Piacenza,45.052238,9.70633,8
PIADENA,S01919,Piadena,45.127608,10.369962,3
PIAN DEL MUGNONE,S06952,Pian del Mugnone,43.813899,11.265994,9
PIAN DI VENOLA,S05114,Pian di Venola,44.332136,11.188609,8
PIANA,S00876,Piana,44.486383,8.308796,7
PIANA BELLA MONTELIBRETTI,S08222,Piana Bella Mon.,42.105159,12.632938,12
PIANA DEL SIGNORE,S12394,Piana del Signor,37.056089,14.304292,19
PIANA DI M.VERNA,S09026,Piana di M.Verna,41.170113,14.32865,15
PIANEROTTOLO DI ARIANO,S09317,Pianerottolo A.,41.188984,15.145482,15
PIANFEI,S00903,Pianfei,44.385228,7.717109,1
PIANIBBIE,S07990,Pianibbie,44.200025,11.442867,9
PIANO D`ORTA BOLOGNANO,S07714,Piano d'Orta B.,42.254455,13.951514,13
PIANO ORIZZONTALE DEI GIOVI,S04216,Piano Orizzont.,44.530912,8.9192,7
PIANORO,S05131,Pianoro,44.380589,11.340675,8
PIANZANO,S02705,Pianzano,45.913397,12.388168,5
PIAZZA AL SERCHIO,S06325,Piazza al Serch.,44.182515,10.296615,9
PIAZZA AMEDEO,S09106,Piazza Amedeo,40.838506,14.232974,15
PIAZZA CAVOUR,S09108,Piazza Cavour,40.855248,14.255175,15
PICERNO,S09833,Picerno,40.640122,15.641612,17
PIEDIMONTE MATESE,S09999,Piedimonte Mates,41.3513,14.36865,15
PIEDIMONTE-V.S.L.-AQUINO,S08680,Pied.-VSL-Aquino,41.495818,13.731633,12
PIEDIMULERA,S00003,Piedimulera,46.024348,8.261237,1
PIETRA LIGURE,S04520,Pietra Ligure,44.145345,8.277403,7
PIETRABISSARA,S04209,Pietrabissara,44.658637,8.926969,7
